Address line 1,Address line 2,Full Address,Latitude,Longitude
217 W 57th St Unit 127/128,"Manhattan, NY 10019","217 W 57th St Unit 127/128 Manhattan, NY 10019 ",40.766474,-73.981266
764 Saint Nicholas /C2 Ave Unit C1,"New York, NY 10031","764 Saint Nicholas /C2 Ave Unit C1 New York, NY 10031 ",40.8261303,-73.9430056
34 W 89th St,"Manhattan, NY 10024","34 W 89th St Manhattan, NY 10024 ",40.7875866,-73.96924
177 Benedict Rd,"Staten Island, NY 10304","177 Benedict Rd Staten Island, NY 10304 ",40.5950084,-74.1064343
115-30 116th St,"South Ozone Park, NY 11420","115-30 116th St South Ozone Park, NY 11420 ",40.6757464,-73.8224126
103 E 84th St Unit Ph,"New York, NY 10028","103 E 84th St Unit Ph New York, NY 10028 ",40.7788226,-73.9575242
353 W 22nd St,"Manhattan, NY 10011","353 W 22nd St Manhattan, NY 10011 ",40.7456757,-74.0009801
650 51st St,"Brooklyn, NY 11220","650 51st St Brooklyn, NY 11220 ",40.6422965,-74.0075025
303 E 57th St Apt 39A,"Manhattan, NY 10022","303 E 57th St Apt 39A Manhattan, NY 10022 ",40.7593679,-73.9650504
973 Fifth Ave,"New York, NY 10075","973 Fifth Ave New York, NY 10075 ",40.7766811,-73.9636668
5 Davis Ct,"Staten Island, NY 10310","5 Davis Ct Staten Island, NY 10310 ",40.6416968,-74.1107325
86 Sunset Ave,"Staten Island, NY 10314","86 Sunset Ave Staten Island, NY 10314 ",40.600505,-74.1339418
19 Gadsen Pl Apt 2G,"Staten Island, NY 10314","19 Gadsen Pl Apt 2G Staten Island, NY 10314 ",40.59307,-74.1596718
308 E 81st St,"New York, NY 10028","308 E 81st St New York, NY 10028 ",40.7742642,-73.9536737
815 Swinton Ave,"Bronx, NY 10465","815 Swinton Ave Bronx, NY 10465 ",40.8264828,-73.8275131
653 Barlow Ave,"Staten Island, NY 10312","653 Barlow Ave Staten Island, NY 10312 ",40.5570352,-74.1703907
3520 Newkirk Ave,"Brooklyn, NY 11203","3520 Newkirk Ave Brooklyn, NY 11203 ",40.6401806,-73.9429395
136 E 79th St # 14A,"New York, NY 10075","136 E 79th St # 14A New York, NY 10075 ",40.7748738,-73.9593405
182-61 Avon Rd,"Jamaica, NY 11432","182-61 Avon Rd Jamaica, NY 11432 ",40.7215637,-73.7822716
431 Mountainview Ave,"Staten Island, NY 10314","431 Mountainview Ave Staten Island, NY 10314 ",40.6007056,-74.124688
361K Skyline Dr Unit K,"Staten Island, NY 10304","361K Skyline Dr Unit K Staten Island, NY 10304 ",40.6123992,-74.0804239
8536 65th Dr,"Rego Park, NY 11374","8536 65th Dr Rego Park, NY 11374 ",40.7194242,-73.8627219
170-15 84th Dr,"Jamaica, NY 11432","170-15 84th Dr Jamaica, NY 11432 ",40.7152952,-73.7939094
48-10 45th St Unit 3B,"Woodside, NY 11377","48-10 45th St Unit 3B Woodside, NY 11377 ",40.7394199,-73.92039
9 Inwood Rd,"Staten Island, NY 10301","9 Inwood Rd Staten Island, NY 10301 ",40.6125626,-74.0934849
563 Park Ave # 5 & 6W,"New York, NY 10065","563 Park Ave # 5 & 6W New York, NY 10065 ",40.7647849,-73.9679849
536 Georgia Ave,"Brooklyn, NY 11207","536 Georgia Ave Brooklyn, NY 11207 ",40.6633104,-73.8958753
34-42 87th St,"Jackson Heights, NY 11372","34-42 87th St Jackson Heights, NY 11372 ",40.7529635,-73.8804156
160-19 88th St,"Howard Beach, NY 11414","160-19 88th St Howard Beach, NY 11414 ",40.6567401,-73.8437901
1958 Colden Ave,"Bronx, NY 10462","1958 Colden Ave Bronx, NY 10462 ",40.8516195,-73.8587569
11125 147th St,"Jamaica, NY 11435","11125 147th St Jamaica, NY 11435 ",40.6872252,-73.7969082
6121 160th St,"Fresh Meadows, NY 11365","6121 160th St Fresh Meadows, NY 11365 ",40.7378992,-73.8082822
7564 184th St,"Fresh Meadows, NY 11366","7564 184th St Fresh Meadows, NY 11366 ",40.7285703,-73.7853152
280 Crown Ave,"Staten Island, NY 10312","280 Crown Ave Staten Island, NY 10312 ",40.5475788,-74.1882589
69-23 Alderton St,"Rego Park, NY 11374","69-23 Alderton St Rego Park, NY 11374 ",40.7130597,-73.8580673
120 E 80th St Unit Parlor,"New York, NY 10075","120 E 80th St Unit Parlor New York, NY 10075 ",40.7758127,-73.9592568
27110 Grand Central Pkwy Apt 30V,"Floral Park, NY 11005","27110 Grand Central Pkwy Apt 30V Floral Park, NY 11005 ",40.7250575,-73.7586039
360 W 123rd St,"Manhattan, NY 10027","360 W 123rd St Manhattan, NY 10027 ",40.8096896,-73.9545352
519 Eltingville Blvd,"Staten Island, NY 10312","519 Eltingville Blvd Staten Island, NY 10312 ",40.5581078,-74.1670944
169 Brighton St,"Staten Island, NY 10307","169 Brighton St Staten Island, NY 10307 ",40.506257,-74.2438371
158-24 81st St,"Howard Beach, NY 11414","158-24 81st St Howard Beach, NY 11414 ",40.6584792,-73.8516652
94-30 59 Ave Unit 4H,"Elmhurst, NY 11373","94-30 59 Ave Unit 4H Elmhurst, NY 11373 ",40.7348199,-73.86684
,,  ,,
250 Mercer St Apt B907,"New York, NY 10012","250 Mercer St Apt B907 New York, NY 10012 ",40.7282326,-73.9953422
186 Fisher Ave,"Staten Island, NY 10307","186 Fisher Ave Staten Island, NY 10307 ",40.5133745,-74.2428535
160 Woods of Arden Rd,"Staten Island, NY 10312","160 Woods of Arden Rd Staten Island, NY 10312 ",40.5367142,-74.164846
150 Central Park S # 609/610,"New York, NY 10019","150 Central Park S # 609/610 New York, NY 10019 ",40.7661258,-73.9779145
18 W 70th St Apt 9H,"New York, NY 10023","18 W 70th St Apt 9H New York, NY 10023 ",40.7749836,-73.9774438
151-15 84th St Unit 6M,"Howard Beach, NY 11414","151-15 84th St Unit 6M Howard Beach, NY 11414 ",40.6672403,-73.8500973
42-42 Colden St Unit B23,"Flushing, NY 11355","42-42 Colden St Unit B23 Flushing, NY 11355 ",40.7545099,-73.82713
86-29 155th Ave Unit 3J,"Howard Beach, NY 11414","86-29 155th Ave Unit 3J Howard Beach, NY 11414 ",40.6649999,-73.84857
148 City Island Ave Unit E12,"Bronx, NY 10464","148 City Island Ave Unit E12 Bronx, NY 10464 ",40.8420969,-73.7843991
160 E 38th St Apt 18C,"New York, NY 10016","160 E 38th St Apt 18C New York, NY 10016 ",40.7485444,-73.9773641
200 E 16th St Apt 2D,"Manhattan, NY 10003","200 E 16th St Apt 2D Manhattan, NY 10003 ",40.7344937,-73.9862705
160 E 38th St Apt 7G,"New York, NY 10016","160 E 38th St Apt 7G New York, NY 10016 ",40.7485444,-73.9773641
308 W 103rd St Apt 2G,"Manhattan, NY 10025","308 W 103rd St Apt 2G Manhattan, NY 10025 ",40.7996534,-73.97021
2315 Healy Ave,"Far Rockaway, NY 11691","2315 Healy Ave Far Rockaway, NY 11691 ",40.6050885,-73.7595762
1 Central Park S # 506,"New York, NY 10019","1 Central Park S # 506 New York, NY 10019 ",40.7691094,-73.98162
3224 Fulton St,"Brooklyn, NY 11208","3224 Fulton St Brooklyn, NY 11208 ",40.6823821,-73.8760553
45 E 66th St Apt 5W,"Manhattan, NY 10065","45 E 66th St Apt 5W Manhattan, NY 10065 ",40.767785,-73.9681416
3850 Hudson Manor Ter Apt 6BE,"Bronx, NY 10463","3850 Hudson Manor Ter Apt 6BE Bronx, NY 10463 ",40.88954,-73.9152547
1 Rose St,"Brooklyn, NY 11236","1 Rose St Brooklyn, NY 11236 ",40.6443109,-73.9073178
435 Sycamore St,"Staten Island, NY 10312","435 Sycamore St Staten Island, NY 10312 ",40.5383847,-74.1644212
170 Detroit Ave,"Staten Island, NY 10312","170 Detroit Ave Staten Island, NY 10312 ",40.5441257,-74.1788408
330 E 38th St Apt 48K,"New York, NY 10016","330 E 38th St Apt 48K New York, NY 10016 ",40.7463283,-73.972718
108 Leonard St Apt 8B,"New York, NY 10013","108 Leonard St Apt 8B New York, NY 10013 ",40.7163709,-74.003384
30 Bushwick Ave Unit 4D,"Brooklyn, NY 11211","30 Bushwick Ave Unit 4D Brooklyn, NY 11211 ",40.7138396,-73.9419407
432 Park Ave Unit Penthouse,"New York, NY 10022","432 Park Ave Unit Penthouse New York, NY 10022 ",40.7617561,-73.9719035
480 Kent Ave Unit 16H,"Brooklyn, NY 11249","480 Kent Ave Unit 16H Brooklyn, NY 11249 ",40.7068533,-73.9683664
1117 30th Dr,"Astoria, NY 11102","1117 30th Dr Astoria, NY 11102 ",40.77033,-73.933656
111 W 56th St Apt 41J,"New York, NY 10019","111 W 56th St Apt 41J New York, NY 10019 ",40.764066,-73.9783129
2211 3rd Ave Unit 1,"New York, NY 10035","2211 3rd Ave Unit 1 New York, NY 10035 ",40.800769,-73.937393
253 Purdy Ave,"Staten Island, NY 10314","253 Purdy Ave Staten Island, NY 10314 ",40.610281,-74.1356718
185 Foster Rd,"Staten Island, NY 10309","185 Foster Rd Staten Island, NY 10309 ",40.5316133,-74.2026108
274 Morrison Ave,"Staten Island, NY 10310","274 Morrison Ave Staten Island, NY 10310 ",40.6281091,-74.1155392
407 Mountainview Ave,"Staten Island, NY 10314","407 Mountainview Ave Staten Island, NY 10314 ",40.60136,-74.1247989
145 Reade St,"Manhattan, NY 10013","145 Reade St Manhattan, NY 10013 ",40.7164065,-74.0101344
40 E 80th St Apt 21A,"Manhattan, NY 10075","40 E 80th St Apt 21A Manhattan, NY 10075 ",40.7768173,-73.9615575
269 87th St,"Brooklyn, NY 11209","269 87th St Brooklyn, NY 11209 ",40.6230399,-74.0318599
153 Ramapo Ave,"Staten Island, NY 10309","153 Ramapo Ave Staten Island, NY 10309 ",40.5406081,-74.2073175
118-29 205th St,"Saint Albans, NY 11412","118-29 205th St Saint Albans, NY 11412 ",40.6940714,-73.746401
203 Pelton Ave,"Staten Island, NY 10310","203 Pelton Ave Staten Island, NY 10310 ",40.6382662,-74.1106676
221-13 106th Ave,"Queens Village, NY 11429","221-13 106th Ave Queens Village, NY 11429 ",40.7100072,-73.7334876
180 Dinsmore St Apt H,"Staten Island, NY 10314","180 Dinsmore St Apt H Staten Island, NY 10314 ",40.603245,-74.1713802
202 Watchogue Rd,"Staten Island, NY 10314","202 Watchogue Rd Staten Island, NY 10314 ",40.6155793,-74.1361194
1968 Mulford Ave,"Bronx, NY 10461","1968 Mulford Ave Bronx, NY 10461 ",40.8517678,-73.8344538
22 Lyle Ct,"Staten Island, NY 10306","22 Lyle Ct Staten Island, NY 10306 ",40.5650025,-74.1376032
191 Terrace St,"Bronx, NY 10464","191 Terrace St Bronx, NY 10464 ",40.8579169,-73.7896274
1162 Bergen Ave,"Brooklyn, NY 11234","1162 Bergen Ave Brooklyn, NY 11234 ",40.6275761,-73.9140054
1100 Clove Rd Unit G0,"Staten Island, NY 10301","1100 Clove Rd Unit G0 Staten Island, NY 10301 ",40.6189551,-74.1072045
28 Mandy Ct,"Staten Island, NY 10309","28 Mandy Ct Staten Island, NY 10309 ",40.5370508,-74.2187697
27110 Grand Central Pkwy Apt 18E,"Floral Park, NY 11005","27110 Grand Central Pkwy Apt 18E Floral Park, NY 11005 ",40.7250575,-73.7586039
3686 Broadway,"New York, NY 10031","3686 Broadway New York, NY 10031 ",40.8309376,-73.9467509
48 E 132nd St Apt 5E,"New York, NY 10037","48 E 132nd St Apt 5E New York, NY 10037 ",40.809643,-73.936802
207-16 28th Ave,"Bayside, NY 11360","207-16 28th Ave Bayside, NY 11360 ",40.7735337,-73.7831962
161 Beach Rd,"Staten Island, NY 10312","161 Beach Rd Staten Island, NY 10312 ",40.5376803,-74.1526108
5115 Tilden Ave,"Brooklyn, NY 11203","5115 Tilden Ave Brooklyn, NY 11203 ",40.6484996,-73.9285115
35 Remsen St,"Brooklyn, NY 11201","35 Remsen St Brooklyn, NY 11201 ",40.695015,-73.9970887
2711 Bruckner Blvd,"Bronx, NY 10465","2711 Bruckner Blvd Bronx, NY 10465 ",40.8305073,-73.8336128
119 W 80th St Apt 2F,"Manhattan, NY 10024","119 W 80th St Apt 2F Manhattan, NY 10024 ",40.7829767,-73.9754311
30 Clinton Ct,"Staten Island, NY 10301","30 Clinton Ct Staten Island, NY 10301 ",40.639587,-74.0967888
268 Gansevoort Blvd,"Staten Island, NY 10314","268 Gansevoort Blvd Staten Island, NY 10314 ",40.6054909,-74.1271066
118-11 84th Ave Unit 601,"Kew Gardens, NY 11415","118-11 84th Ave Unit 601 Kew Gardens, NY 11415 ",40.7041499,-73.83371
26910 Grand Central Pkwy Apt 7C,"Floral Park, NY 11005","26910 Grand Central Pkwy Apt 7C Floral Park, NY 11005 ",40.7566899,-73.72075
1858 E 29th St,"Brooklyn, NY 11229","1858 E 29th St Brooklyn, NY 11229 ",40.6058732,-73.9442161
969 Park Ave Unit 1D,"Manhattan, NY 10028","969 Park Ave Unit 1D Manhattan, NY 10028 ",40.7778041,-73.9586415
153 S 4th St Apt 5,"Brooklyn, NY 11211","153 S 4th St Apt 5 Brooklyn, NY 11211 ",40.711735,-73.9620442
430 E 58th St Ph 80,"New York, NY 10022","430 E 58th St Ph 80 New York, NY 10022 ",40.7582785,-73.9612457
567 Ocean Ave,"Brooklyn, NY 11226","567 Ocean Ave Brooklyn, NY 11226 ",40.649066,-73.9604707
41 Bennett Pl,"Staten Island, NY 10312","41 Bennett Pl Staten Island, NY 10312 ",40.5293092,-74.1644533
128 Lake Ave,"Staten Island, NY 10303","128 Lake Ave Staten Island, NY 10303 ",40.6337045,-74.1511773
61-25 255th St Unit 979,"Little Neck, NY 11362","61-25 255th St Unit 979 Little Neck, NY 11362 ",40.7581699,-73.72413
35 62nd St,"Manhattan, NY 10065","35 62nd St Manhattan, NY 10065 ",40.7654146,-73.9693523
100 W 57th St Apt 11J,"New York, NY 10019","100 W 57th St Apt 11J New York, NY 10019 ",40.7614835,-73.97081
6451 59th Ave,"Maspeth, NY 11378","6451 59th Ave Maspeth, NY 11378 ",40.7204422,-73.8993415
263 Albee Ave,"Staten Island, NY 10312","263 Albee Ave Staten Island, NY 10312 ",40.5361943,-74.1819234
36 E 63rd St,"Manhattan, NY 10065","36 E 63rd St Manhattan, NY 10065 ",40.7657311,-73.9690147
4 W 101st St Apt 5,"Manhattan, NY 10025","4 W 101st St Apt 5 Manhattan, NY 10025 ",40.7947364,-73.9624506
12 Bunnell Ct,"Staten Island, NY 10312","12 Bunnell Ct Staten Island, NY 10312 ",40.5524654,-74.2004814
83 118th St Unit 3J,"Queens, NY 11415","83 118th St Unit 3J Queens, NY 11415 ",40.7059307,-73.8342344
284 Chelsea St,"Staten Island, NY 10307","284 Chelsea St Staten Island, NY 10307 ",40.5028503,-74.2441097
2132 2nd Ave Unit 7B,"New York, NY 10029","2132 2nd Ave Unit 7B New York, NY 10029 ",40.792914,-73.9404066
243-30 132nd Ave,"Rosedale, NY 11422","243-30 132nd Ave Rosedale, NY 11422 ",40.6752694,-73.7284181
38 Milbank Rd,"Staten Island, NY 10306","38 Milbank Rd Staten Island, NY 10306 ",40.560864,-74.1022927
2626 National Dr,"Brooklyn, NY 11234","2626 National Dr Brooklyn, NY 11234 ",40.6059,-73.9020338
33-71 Prince St Unit A,"Flushing, NY 11354","33-71 Prince St Unit A Flushing, NY 11354 ",40.765949,-73.833088
1084 E 73rd St Apt 4,"Brooklyn, NY 11234","1084 E 73rd St Apt 4 Brooklyn, NY 11234 ",40.6281559,-73.916991
1233 Todt Hill Rd,"Staten Island, NY 10304","1233 Todt Hill Rd Staten Island, NY 10304 ",40.5813722,-74.1131728
115 E 235th St,"Bronx, NY 10470","115 E 235th St Bronx, NY 10470 ",40.8972579,-73.8719301
184 Hull St Apt C,"Brooklyn, NY 11233","184 Hull St Apt C Brooklyn, NY 11233 ",40.6796694,-73.9080688
4 W 101st St Apt 5,"Manhattan, NY 10025","4 W 101st St Apt 5 Manhattan, NY 10025 ",40.7947364,-73.9624506
36 E 63rd St,"Manhattan, NY 10065","36 E 63rd St Manhattan, NY 10065 ",40.7657311,-73.9690147
12 Bunnell Ct,"Staten Island, NY 10312","12 Bunnell Ct Staten Island, NY 10312 ",40.5524654,-74.2004814
284 Chelsea St,"Staten Island, NY 10307","284 Chelsea St Staten Island, NY 10307 ",40.5028503,-74.2441097
2132 2nd Ave Unit 7B,"New York, NY 10029","2132 2nd Ave Unit 7B New York, NY 10029 ",40.792914,-73.9404066
243-30 132nd Ave,"Rosedale, NY 11422","243-30 132nd Ave Rosedale, NY 11422 ",40.6752694,-73.7284181
38 Milbank Rd,"Staten Island, NY 10306","38 Milbank Rd Staten Island, NY 10306 ",40.560864,-74.1022927
2626 National Dr,"Brooklyn, NY 11234","2626 National Dr Brooklyn, NY 11234 ",40.6059,-73.9020338
27-41 168 St,"Flushing, NY 11358","27-41 168 St Flushing, NY 11358 ",40.770966,-73.7965391
16 Redwood Loop,"Staten Island, NY 10309","16 Redwood Loop Staten Island, NY 10309 ",40.5479041,-74.2147155
241 E 234th St,"Bronx, NY 10470","241 E 234th St Bronx, NY 10470 ",40.8969212,-73.8689466
96 Circle Rd,"Staten Island, NY 10304","96 Circle Rd Staten Island, NY 10304 ",40.5978794,-74.1065153
100 W 57th St Apt 18G,"New York, NY 10019","100 W 57th St Apt 18G New York, NY 10019 ",40.7614835,-73.97081
48 Oceanic Ave,"Staten Island, NY 10312","48 Oceanic Ave Staten Island, NY 10312 ",40.533576,-74.1522828
3061 Scenic Pl,"Bronx, NY 10463","3061 Scenic Pl Bronx, NY 10463 ",40.8847335,-73.9204591
430 Lenox Ave Unit 2F,"New York, NY 10037","430 Lenox Ave Unit 2F New York, NY 10037 ",40.8117512,-73.9422538
127 W 111th St,"New York, NY 10026","127 W 111th St New York, NY 10026 ",40.7996794,-73.9533721
155 Nicolosi Dr,"Staten Island, NY 10312","155 Nicolosi Dr Staten Island, NY 10312 ",40.520812,-74.1778719
97-40 62nd Dr Unit 1F,"Rego Park, NY 11374","97-40 62nd Dr Unit 1F Rego Park, NY 11374 ",40.7327399,-73.86077
1903 Tomlinson Ave,"Bronx, NY 10461","1903 Tomlinson Ave Bronx, NY 10461 ",40.8519536,-73.8540929
72-03 160th St,"Fresh Meadows, NY 11365","72-03 160th St Fresh Meadows, NY 11365 ",40.7278564,-73.8086746
,,  ,,
92-07 69th Ave,"Forest Hills, NY 11375","92-07 69th Ave Forest Hills, NY 11375 ",40.7145771,-73.8539377
210 Hull St Apt A,"Brooklyn, NY 11233","210 Hull St Apt A Brooklyn, NY 11233 ",40.6797711,-73.9071681
16 Holsman Rd,"Staten Island, NY 10301","16 Holsman Rd Staten Island, NY 10301 ",40.6120196,-74.0923538
16 Maple St,"New York, NY 12839","16 Maple St New York, NY 12839 ",40.6600293,-73.9599578
269 Fisher Ave,"Staten Island, NY 10307","269 Fisher Ave Staten Island, NY 10307 ",40.5118747,-74.2407004
677 Bement Ave,"Staten Island, NY 10310","677 Bement Ave Staten Island, NY 10310 ",40.6247695,-74.1104382
347 Maine Ave,"Staten Island, NY 10314","347 Maine Ave Staten Island, NY 10314 ",40.620761,-74.135182
320 E 42nd St Apt 1503,"New York, NY 10017","320 E 42nd St Apt 1503 New York, NY 10017 ",40.7494678,-73.9717468
203 W 81st St Apt 4E,"New York, NY 10024","203 W 81st St Apt 4E New York, NY 10024 ",40.7849407,-73.9778666
118 Admiral Ct Unit 14,"Bronx, NY 10473","118 Admiral Ct Unit 14 Bronx, NY 10473 ",40.806147,-73.85236
103 Elmbank St,"Staten Island, NY 10312","103 Elmbank St Staten Island, NY 10312 ",40.530342,-74.163161
707 Marcy Ave,"Staten Island, NY 10309","707 Marcy Ave Staten Island, NY 10309 ",40.5396912,-74.2009617
8 Tacoma St,"Staten Island, NY 10304","8 Tacoma St Staten Island, NY 10304 ",40.5991374,-74.0913053
34 W 12th St,"New York, NY 10011","34 W 12th St New York, NY 10011 ",40.7350844,-73.9959964
575 Park Ave Unit 407,"Manhattan, NY 10065","575 Park Ave Unit 407 Manhattan, NY 10065 ",40.7651716,-73.9678719
30 Aviva Ct,"Staten Island, NY 10307","30 Aviva Ct Staten Island, NY 10307 ",40.5081966,-74.2548917
9951 Shore Rd Apt 1B,"Brooklyn, NY 11209","9951 Shore Rd Apt 1B Brooklyn, NY 11209 ",40.6125976,-74.0358108
201 W 70th St Apt 5D,"New York, NY 10023","201 W 70th St Apt 5D New York, NY 10023 ",40.777187,-73.9826725
71 Groton St,"Staten Island, NY 10312","71 Groton St Staten Island, NY 10312 ",40.5362498,-74.1497357
1923 E 32nd St,"Brooklyn, NY 11234","1923 E 32nd St Brooklyn, NY 11234 ",40.60917,-73.9353047
11 Wirt Ave,"Staten Island, NY 10309","11 Wirt Ave Staten Island, NY 10309 ",40.5485503,-74.2145048
253 Father Capodanno Blvd,"Staten Island, NY 10305","253 Father Capodanno Blvd Staten Island, NY 10305 ",40.5909939,-74.0662942
333 W 56th St Apt 2M,"New York, NY 10019","333 W 56th St Apt 2M New York, NY 10019 ",40.767173,-73.9850762
195-21 Station Rd,"Flushing, NY 11358","195-21 Station Rd Flushing, NY 11358 ",40.7614962,-73.7864907
64-18 84 Pl,"Middle Village, NY 11379","64-18 84 Pl Middle Village, NY 11379 ",40.721395,-73.868864
72 Bangor St,"Staten Island, NY 10314","72 Bangor St Staten Island, NY 10314 ",40.5852392,-74.1541001
6448 Booth St Apt 4D,"Rego Park, NY 11374","6448 Booth St Apt 4D Rego Park, NY 11374 ",40.7274972,-73.8607302
193 Saint Johns Ave,"Staten Island, NY 10305","193 Saint Johns Ave Staten Island, NY 10305 ",40.6095235,-74.0706081
144-55 Melbourne Ave Unit 3A,"Flushing, NY 11367","144-55 Melbourne Ave Unit 3A Flushing, NY 11367 ",40.7340599,-73.82532
295 Hicks St,"Brooklyn, NY 11201","295 Hicks St Brooklyn, NY 11201 ",40.692452,-73.9969371
287 Dickie Ave,"Staten Island, NY 10314","287 Dickie Ave Staten Island, NY 10314 ",40.6169701,-74.1378405
1177 Anderson Ave Apt 2D,"Bronx, NY 10452","1177 Anderson Ave Apt 2D Bronx, NY 10452 ",40.83645,-73.924271
173-175 Riverside Dr # 13N,"New York, NY 10024","173-175 Riverside Dr # 13N New York, NY 10024 ",40.7918251,-73.9778209
58 Montell St,"Staten Island, NY 10302","58 Montell St Staten Island, NY 10302 ",40.6291622,-74.1391469
2243 Schenectady Ave,"Brooklyn, NY 11234","2243 Schenectady Ave Brooklyn, NY 11234 ",40.6171702,-73.9293459
28 Logan St,"Brooklyn, NY 11208","28 Logan St Brooklyn, NY 11208 ",40.6861065,-73.8791723
403 W 148th St,"New York, NY 10031","403 W 148th St New York, NY 10031 ",40.8263203,-73.9437414
161 W 86th St Apt 5A,"New York, NY 10024","161 W 86th St Apt 5A New York, NY 10024 ",40.787351,-73.9738346
110 Central Park S Apt 11B,"New York, NY 10019","110 Central Park S Apt 11B New York, NY 10019 ",40.765738,-73.9770652
50 Morningside Dr Apt 32,"Manhattan, NY 10025","50 Morningside Dr Apt 32 Manhattan, NY 10025 ",40.8055735,-73.9599471
44 Mildred Ave,"Staten Island, NY 10314","44 Mildred Ave Staten Island, NY 10314 ",40.590993,-74.187184
52-35 240th St,"Little Neck, NY 11362","52-35 240th St Little Neck, NY 11362 ",40.7579907,-73.7417857
35 Jeanette Ave,"Staten Island, NY 10312","35 Jeanette Ave Staten Island, NY 10312 ",40.5433305,-74.1755798
360 E 72nd St Apt A307,"New York, NY 10021","360 E 72nd St Apt A307 New York, NY 10021 ",40.7680319,-73.9569977
109 Quinlan Ave,"Staten Island, NY 10314","109 Quinlan Ave Staten Island, NY 10314 ",40.6096139,-74.1286284
10108 4th Ave Apt 25A,"Brooklyn, NY 11209","10108 4th Ave Apt 25A Brooklyn, NY 11209 ",40.6121387,-74.0344804
77-20 Austin St Unit 5F,"Forest Hills, NY 11375","77-20 Austin St Unit 5F Forest Hills, NY 11375 ",40.7146499,-73.8355099
40 Larkin St,"Staten Island, NY 10302","40 Larkin St Staten Island, NY 10302 ",40.6393485,-74.1356374
822 Lafayette Ave,"Brooklyn, NY 11221","822 Lafayette Ave Brooklyn, NY 11221 ",40.6908776,-73.9400625
25 Pelton Ave,"Staten Island, NY 10310","25 Pelton Ave Staten Island, NY 10310 ",40.6432518,-74.1116032
1538 Saint Marks Ave,"Brooklyn, NY 11233","1538 Saint Marks Ave Brooklyn, NY 11233 ",40.67319,-73.9163494
18 Calcagno Ct,"Staten Island, NY 10314","18 Calcagno Ct Staten Island, NY 10314 ",40.6089871,-74.1602992
1171 Ocean Pkwy Apt 2B,"Brooklyn, NY 11230","1171 Ocean Pkwy Apt 2B Brooklyn, NY 11230 ",40.6201147,-73.9691833
78 E 127th St Apt 18,"Manhattan, NY 10035","78 E 127th St Apt 18 Manhattan, NY 10035 ",40.8063839,-73.9387636
60 Knolls Cres Apt 6L,"Bronx, NY 10463","60 Knolls Cres Apt 6L Bronx, NY 10463 ",40.8784938,-73.918116
1393 Park Pl,"Brooklyn, NY 11213","1393 Park Pl Brooklyn, NY 11213 ",40.6725943,-73.9313019
46 W 126th St # Th,"New York, NY 10027","46 W 126th St # Th New York, NY 10027 ",40.8076792,-73.9436268
100 W 57th St Apt 8P,"New York, NY 10019","100 W 57th St Apt 8P New York, NY 10019 ",40.7614835,-73.97081
206 E 90th St Apt 2E,"Manhattan, NY 10128","206 E 90th St Apt 2E Manhattan, NY 10128 ",40.7811326,-73.9519892
144-55 Melbourne Ave Unit 4A,"Flushing, NY 11367","144-55 Melbourne Ave Unit 4A Flushing, NY 11367 ",40.7340599,-73.82532
3850 Hudson Manor Ter Apt 5AE,"Bronx, NY 10463","3850 Hudson Manor Ter Apt 5AE Bronx, NY 10463 ",40.88954,-73.9152547
183 Bay Ter,"Staten Island, NY 10306","183 Bay Ter Staten Island, NY 10306 ",40.5534499,-74.1341579
8829 155th Ave Apt 5A,"Howard Beach, NY 11414","8829 155th Ave Apt 5A Howard Beach, NY 11414 ",40.6656299,-73.84713
58 St Nicholas Ave Unit 6,"Brooklyn, NY 11237","58 St Nicholas Ave Unit 6 Brooklyn, NY 11237 ",40.7066922,-73.920648
148 E 84th St Apt 3C,"New York, NY 10028","148 E 84th St Apt 3C New York, NY 10028 ",40.7780033,-73.9564912
205 W 95th St Apt 5E,"New York, NY 10025","205 W 95th St Apt 5E New York, NY 10025 ",40.7935703,-73.9709329
5700 Arlington Ave Unit 2NM,"Bronx, NY 10471","5700 Arlington Ave Unit 2NM Bronx, NY 10471 ",40.9070166,-73.9062326
724 E 216th St Apt 5C,"Bronx, NY 10467","724 E 216th St Apt 5C Bronx, NY 10467 ",40.881077,-73.8632749
218 Scholes St Unit 12,"Brooklyn, NY 11206","218 Scholes St Unit 12 Brooklyn, NY 11206 ",40.70884,-73.940246
432 Park Ave # 71,"New York, NY 10022","432 Park Ave # 71 New York, NY 10022 ",40.761648,-73.9717602
25 Benjamin Pl,"Staten Island, NY 10303","25 Benjamin Pl Staten Island, NY 10303 ",40.6375986,-74.1691945
15 W 84th St Apt 1J,"New York, NY 10024","15 W 84th St Apt 1J New York, NY 10024 ",40.7845842,-73.9713866
36-15 10th St,"Astoria, NY 11106","36-15 10th St Astoria, NY 11106 ",40.7609039,-73.9409189
2250 Brigham St Apt 2E,"Brooklyn, NY 11229","2250 Brigham St Apt 2E Brooklyn, NY 11229 ",40.5977996,-73.9348026
38 E 85th St Unit 3E,"New York, NY 10028","38 E 85th St Unit 3E New York, NY 10028 ",40.7799999,-73.9592632
2287 Johnson Ave Apt 17J,"Bronx, NY 10463","2287 Johnson Ave Apt 17J Bronx, NY 10463 ",40.8778582,-73.9188858
389 Manhattan Ave,"Manhattan, NY 10026","389 Manhattan Ave Manhattan, NY 10026 ",40.8053553,-73.9568515
22 E 10th St,"Manhattan, NY 10003","22 E 10th St Manhattan, NY 10003 ",40.7326998,-73.9943864
97-40 62nd Dr Unit 2G,"Rego Park, NY 11374","97-40 62nd Dr Unit 2G Rego Park, NY 11374 ",40.7327399,-73.86077
225 E 46th St Apt 9B,"New York, NY 10017","225 E 46th St Apt 9B New York, NY 10017 ",40.7530081,-73.9712609
3321 Bruckner Blvd Apt 2M,"Bronx, NY 10461","3321 Bruckner Blvd Apt 2M Bronx, NY 10461 ",40.842077,-73.8263075
660 Lester St,"Bronx, NY 10467","660 Lester St Bronx, NY 10467 ",40.8704216,-73.8687535
2507 121st St,"Flushing, NY 11354","2507 121st St Flushing, NY 11354 ",40.7766039,-73.8469159
194 56 115 Dr,"Saint Albans, NY 11412","194 56 115 Dr Saint Albans, NY 11412 ",40.6955018,-73.756891
60 W 20th St Apt 4D,"New York, NY 10011","60 W 20th St Apt 4D New York, NY 10011 ",40.7406565,-73.9939044
2579 Frederick Douglass Blvd Apt A,"New York, NY 10030","2579 Frederick Douglass Blvd Apt A New York, NY 10030 ",40.8183649,-73.9454799
10 Park Ave Unit 3AB,"New York, NY 10016","10 Park Ave Unit 3AB New York, NY 10016 ",40.747507,-73.9814879
70 Little West St Apt 32A,"New York, NY 10004","70 Little West St Apt 32A New York, NY 10004 ",40.7069759,-74.0169617
177 E 79th St Unit 16A,"New York, NY 10075","177 E 79th St Unit 16A New York, NY 10075 ",40.7752374,-73.9591773
41 Crosby St Unit Loftr,"New York, NY 10013","41 Crosby St Unit Loftr New York, NY 10013 ",40.7216787,-73.9986306
62 Bennett Pl,"Staten Island, NY 10312","62 Bennett Pl Staten Island, NY 10312 ",40.5285511,-74.1646281
6960 Caldwell Ave,"Maspeth, NY 11378","6960 Caldwell Ave Maspeth, NY 11378 ",40.723922,-73.892127
82-03 260 St,"Glen Oaks, NY 11004","82-03 260 St Glen Oaks, NY 11004 ",40.7410536,-73.7094676
111 W 57th St # 25,"New York, NY 10019","111 W 57th St # 25 New York, NY 10019 ",40.764953,-73.977568
575 Carlton Blvd,"Staten Island, NY 10312","575 Carlton Blvd Staten Island, NY 10312 ",40.5498708,-74.1814847
463 60th St,"Brooklyn, NY 11220","463 60th St Brooklyn, NY 11220 ",40.6400348,-74.0166592
90 Bay St Unit 9C,"Staten Island, NY 10301","90 Bay St Unit 9C Staten Island, NY 10301 ",40.6404991,-74.0738317
100 United Nations Plz Apt 7G,"New York, NY 10017","100 United Nations Plz Apt 7G New York, NY 10017 ",40.7531064,-73.9676485
3841 Bronxwood Ave,"Bronx, NY 10469","3841 Bronxwood Ave Bronx, NY 10469 ",40.8831624,-73.85661
558 Empire Blvd # 1,"Brooklyn, NY 11225","558 Empire Blvd # 1 Brooklyn, NY 11225 ",40.6638409,-73.943792
310 E 46th St Apt 3W,"New York, NY 10017","310 E 46th St Apt 3W New York, NY 10017 ",40.7521548,-73.9701522
203 W 98th St Unit 4CD,"New York, NY 10025","203 W 98th St Unit 4CD New York, NY 10025 ",40.7957561,-73.9698024
211 E 35th St Apt 6F,"Manhattan, NY 10016","211 E 35th St Apt 6F Manhattan, NY 10016 ",40.7463223,-73.9770888
24 Cooper Ave Unit 4C,"New York, NY 11385","24 Cooper Ave Unit 4C New York, NY 11385 ",40.6956731,-73.8948072
530 Manhattan Ave Apt 5,"Manhattan, NY 10027","530 Manhattan Ave Apt 5 Manhattan, NY 10027 ",40.8089559,-73.9541486
16 Pine St,"Brooklyn, NY 11208","16 Pine St Brooklyn, NY 11208 ",40.6862671,-73.874092
330 E 38th St Apt 27A,"New York, NY 10016","330 E 38th St Apt 27A New York, NY 10016 ",40.7463283,-73.972718
13450 Blossom Ave Apt 3H,"Flushing, NY 11355","13450 Blossom Ave Apt 3H Flushing, NY 11355 ",40.7531437,-73.8276038
166 E 63rd St Apt 7E,"Manhattan, NY 10065","166 E 63rd St Apt 7E Manhattan, NY 10065 ",40.7640562,-73.9653276
160 Bleecker St Apt 5AW,"New York, NY 10012","160 Bleecker St Apt 5AW New York, NY 10012 ",40.72842,-74.0000025
123 Washington St Ph 53G,"New York, NY 10006","123 Washington St Ph 53G New York, NY 10006 ",40.7092191,-74.0137534
4518 79th St,"Elmhurst, NY 11373","4518 79th St Elmhurst, NY 11373 ",40.7407263,-73.885774
1185 Fulton Ave Apt G,"Bronx, NY 10456","1185 Fulton Ave Apt G Bronx, NY 10456 ",40.8299282,-73.9053688
62-48 70th St,"Middle Village, NY 11379","62-48 70th St Middle Village, NY 11379 ",40.7176641,-73.8859526
230 Central Park S # 3AB,"New York, NY 10019","230 Central Park S # 3AB New York, NY 10019 ",40.7673066,-73.9806613
524 E 72nd St Apt 32CDE,"New York, NY 10021","524 E 72nd St Apt 32CDE New York, NY 10021 ",40.7660223,-73.9524527
760 Franklin _Use Ave Unit Mixed,"Brooklyn, NY 11238","760 Franklin _Use Ave Unit Mixed Brooklyn, NY 11238 ",40.6003888,-73.9422927
1180 Sherman Ave,"Bronx, NY 10456","1180 Sherman Ave Bronx, NY 10456 ",40.833033,-73.916061
322 W 57th St Apt 24V,"New York, NY 10019","322 W 57th St Apt 24V New York, NY 10019 ",40.7670765,-73.9845413
1322 E 14th St Apt 3B,"Brooklyn, NY 11230","1322 E 14th St Apt 3B Brooklyn, NY 11230 ",40.6172463,-73.9610373
E 28th St Unit 1502,"New York, NY 10016","E 28th St Unit 1502 New York, NY 10016 ",40.7423023,-73.9816351
111 W 57th St Ph 72,"New York, NY 10019","111 W 57th St Ph 72 New York, NY 10019 ",40.764953,-73.977568
717 Annadale Rd,"Staten Island, NY 10312","717 Annadale Rd Staten Island, NY 10312 ",40.5445617,-74.1762222
161 Henry St Unit 5A,"Manhattan, NY 10002","161 Henry St Unit 5A Manhattan, NY 10002 ",40.7136144,-73.9893704
2227 West St,"Brooklyn, NY 11223","2227 West St Brooklyn, NY 11223 ",40.5943693,-73.9706678
3 Locust Ave,"Staten Island, NY 10306","3 Locust Ave Staten Island, NY 10306 ",40.5777318,-74.1172452
3117 Broadway Apt 55,"New York, NY 10027","3117 Broadway Apt 55 New York, NY 10027 ",40.8130911,-73.9602961
81 Ridgecrest Ave,"Staten Island, NY 10312","81 Ridgecrest Ave Staten Island, NY 10312 ",40.536377,-74.155697
621 Washington _Use Ave Unit Mixed,"Brooklyn, NY 11238","621 Washington _Use Ave Unit Mixed Brooklyn, NY 11238 ",40.6003888,-73.9422927
40-03 Woodside Ave,"Woodside, NY 11377","40-03 Woodside Ave Woodside, NY 11377 ",40.746009,-73.908029
500 W 43rd St Apt 38B,"New York, NY 10036","500 W 43rd St Apt 38B New York, NY 10036 ",40.7601779,-73.9955205
313 Eckford St,"Brooklyn, NY 11222","313 Eckford St Brooklyn, NY 11222 ",40.7297697,-73.9523535
425 E 63rd St Apt W7G,"New York, NY 10065","425 E 63rd St Apt W7G New York, NY 10065 ",40.7619284,-73.9585301
,,  ,,
61B Edgewater Park Unit 61B,"Bronx, NY 10465","61B Edgewater Park Unit 61B Bronx, NY 10465 ",40.822492,-73.8111973
190 Cozine Ave Unit 67G,"Brooklyn, NY 11207","190 Cozine Ave Unit 67G Brooklyn, NY 11207 ",40.654871,-73.8847697
133 Pacific St Unit 2,"Brooklyn, NY 11201","133 Pacific St Unit 2 Brooklyn, NY 11201 ",40.6899446,-73.9953302
2545 Sedgwick Ave Apt 7B,"Bronx, NY 10468","2545 Sedgwick Ave Apt 7B Bronx, NY 10468 ",40.8673011,-73.9076427
9 W 54th St,"New York, NY 10019","9 W 54th St New York, NY 10019 ",40.7616249,-73.9762045
198-12 Pompeii Ave Unit B,"Hollis, NY 11423","198-12 Pompeii Ave Unit B Hollis, NY 11423 ",40.7212293,-73.7660688
212 Fifth Ave Apt 17A,"New York, NY 10010","212 Fifth Ave Apt 17A New York, NY 10010 ",40.7434806,-73.9886905
212-30 23 Ave Unit 1H,"Bayside, NY 11360","212-30 23 Ave Unit 1H Bayside, NY 11360 ",40.7815244,-73.7772411
869 Elsmere Pl,"Bronx, NY 10460","869 Elsmere Pl Bronx, NY 10460 ",40.8425384,-73.8865868
630 E 14th St Apt 16,"New York, NY 10009","630 E 14th St Apt 16 New York, NY 10009 ",40.72896,-73.977394
57-27 246th Pl,"Little Neck, NY 11362","57-27 246th Pl Little Neck, NY 11362 ",40.7579725,-73.7314062
184 Kent Ave Apt A315,"Brooklyn, NY 11249","184 Kent Ave Apt A315 Brooklyn, NY 11249 ",40.719033,-73.965106
41 Edgeworth St,"New York, NY 11581","41 Edgeworth St New York, NY 11581 ",40.648395,-73.7039629
209 E 2nd St Apt 3,"Manhattan, NY 10009","209 E 2nd St Apt 3 Manhattan, NY 10009 ",40.7218323,-73.9832833
389 Bergen St Unit 2,"Brooklyn, NY 11217","389 Bergen St Unit 2 Brooklyn, NY 11217 ",40.6821129,-73.9782127
30 Macombs Pl Apt 61,"New York, NY 10039","30 Macombs Pl Apt 61 New York, NY 10039 ",40.8260398,-73.938723
405 Winant Ave,"Staten Island, NY 10309","405 Winant Ave Staten Island, NY 10309 ",40.5459459,-74.2160976
83 Jane St Unit TH1,"Manhattan, NY 10014","83 Jane St Unit TH1 Manhattan, NY 10014 ",40.7382967,-74.007377
32-27 92nd St,"East Elmhurst, NY 11369","32-27 92nd St East Elmhurst, NY 11369 ",40.7579321,-73.8760772
16 Warren St Unit Penthouse,"Manhattan, NY 10007","16 Warren St Unit Penthouse Manhattan, NY 10007 ",40.714204,-74.0075468
1611 Oriental Boulevard Oriental Blvd Unit 1611,"Brooklyn, NY 11235","1611 Oriental Boulevard Oriental Blvd Unit 1611 Brooklyn, NY 11235 ",40.5786808,-73.9384882
2677 National Dr,"Brooklyn, NY 11234","2677 National Dr Brooklyn, NY 11234 ",40.6073953,-73.9026283
103-28 104th St,"Ozone Park, NY 11417","103-28 104th St Ozone Park, NY 11417 ",40.6833355,-73.8379312
236 Nelson Ave,"Staten Island, NY 10308","236 Nelson Ave Staten Island, NY 10308 ",40.5435462,-74.1478796
330 Underhill Ave,"Bronx, NY 10473","330 Underhill Ave Bronx, NY 10473 ",40.8123107,-73.8577142
28 W 10th St,"Manhattan, NY 10011","28 W 10th St Manhattan, NY 10011 ",40.7338802,-73.9970404
1283 Croes Ave,"Bronx, NY 10472","1283 Croes Ave Bronx, NY 10472 ",40.8320565,-73.8715281
60 Tyrrell St,"Staten Island, NY 10307","60 Tyrrell St Staten Island, NY 10307 ",40.5135267,-74.2498226
460 Ovington Ave Apt 5A,"Brooklyn, NY 11209","460 Ovington Ave Apt 5A Brooklyn, NY 11209 ",40.6328972,-74.0224143
360 E 72nd St Apt B803,"New York, NY 10021","360 E 72nd St Apt B803 New York, NY 10021 ",40.7680319,-73.9569977
18-50 211 St Unit 3D,"Bayside, NY 11360","18-50 211 St Unit 3D Bayside, NY 11360 ",40.7820599,-73.78161
56 1/2 Edgewater Park Unit A,"Bronx, NY 10465","56 1/2 Edgewater Park Unit A Bronx, NY 10465 ",40.8231243,-73.8082673
520 9th Ave Unit Building,"New York, NY 10018","520 9th Ave Unit Building New York, NY 10018 ",40.756313,-73.9938983
27010 Grand Central Pkwy Apt 20E,"Floral Park, NY 11005","27010 Grand Central Pkwy Apt 20E Floral Park, NY 11005 ",40.7566899,-73.72075
34-36 E 70th St,"New York, NY 10021","34-36 E 70th St New York, NY 10021 ",40.7700033,-73.9658591
106 Justin Ave,"Staten Island, NY 10306","106 Justin Ave Staten Island, NY 10306 ",40.5557686,-74.1350371
9536 Schenck St Apt 3,"Brooklyn, NY 11236","9536 Schenck St Apt 3 Brooklyn, NY 11236 ",40.6309761,-73.8873282
339 E 58th St Apt 7G,"New York, NY 10022","339 E 58th St Apt 7G New York, NY 10022 ",40.75961,-73.9635561
465 Argyle Rd,"Brooklyn, NY 11218","465 Argyle Rd Brooklyn, NY 11218 ",40.6379098,-73.9653996
57 Pennyfield Camp Dr,"Bronx, NY 10465","57 Pennyfield Camp Dr Bronx, NY 10465 ",40.8214176,-73.8063215
890 Armstrong Ave Apt 1-1,"Staten Island, NY 10308","890 Armstrong Ave Apt 1-1 Staten Island, NY 10308 ",40.5565172,-74.1627222
1554 Unionport Rd Apt 2F,"Bronx, NY 10462","1554 Unionport Rd Apt 2F Bronx, NY 10462 ",40.8390339,-73.8568507
2243 Jackson Ave,"Queens, NY 11101","2243 Jackson Ave Queens, NY 11101 ",40.7457683,-73.9461424
559 Correll Ave,"Staten Island, NY 10309","559 Correll Ave Staten Island, NY 10309 ",40.547022,-74.211095
112 Ave Unit 4A,"Corona, NY 11368","112 Ave Unit 4A Corona, NY 11368 ",40.7533868,-73.8554608
61 Jane St Apt 18F,"New York, NY 10014","61 Jane St Apt 18F New York, NY 10014 ",40.7382771,-74.0057999
199-07 Epsom Crse,"Hollis, NY 11423","199-07 Epsom Crse Hollis, NY 11423 ",40.7241028,-73.766333
133 W 95th St,"Manhattan, NY 10025","133 W 95th St Manhattan, NY 10025 ",40.7928574,-73.9691481
130th St,"College Point, NY 11356","130th St College Point, NY 11356 ",40.7832363,-73.83862
233 W 138th St,"Manhattan, NY 10030","233 W 138th St Manhattan, NY 10030 ",40.8179812,-73.9435895
2233 E 72nd St,"Brooklyn, NY 11234","2233 E 72nd St Brooklyn, NY 11234 ",40.6181218,-73.9039932
446 E 86th St Apt 2B,"Manhattan, NY 10028","446 E 86th St Apt 2B Manhattan, NY 10028 ",40.776294,-73.9483852
6128 Spencer Ave,"Bronx, NY 10471","6128 Spencer Ave Bronx, NY 10471 ",40.910372,-73.898171
4456 Waldo Ave,"Bronx, NY 10471","4456 Waldo Ave Bronx, NY 10471 ",40.8925154,-73.9010726
87-42 114th St,"Richmond Hill, NY 11418","87-42 114th St Richmond Hill, NY 11418 ",40.6970736,-73.8345318
1670 Longfellow Ave Apt 4A,"Bronx, NY 10460","1670 Longfellow Ave Apt 4A Bronx, NY 10460 ",40.8348834,-73.8847539
1569 Metropolitan Ave Apt 5E,"Bronx, NY 10462","1569 Metropolitan Ave Apt 5E Bronx, NY 10462 ",40.84057,-73.8588591
310 E 46th St Ph H,"New York, NY 10017","310 E 46th St Ph H New York, NY 10017 ",40.7520036,-73.9698216
1 Central Park S Unit 1801/1901,"Manhattan, NY 10019","1 Central Park S Unit 1801/1901 Manhattan, NY 10019 ",40.7646573,-73.9744439
546 W 165th St,"Manhattan, NY 10032","546 W 165th St Manhattan, NY 10032 ",40.8385556,-73.9405029
476 Cortelyou Ave,"Staten Island, NY 10312","476 Cortelyou Ave Staten Island, NY 10312 ",40.5470736,-74.1619888
870 Riverside Dr Apt 2B,"New York, NY 10032","870 Riverside Dr Apt 2B New York, NY 10032 ",40.8350489,-73.9453431
176 State St,"Brooklyn, NY 11201","176 State St Brooklyn, NY 11201 ",40.6905,-73.993064
8829 155th Ave Apt 1H,"Howard Beach, NY 11414","8829 155th Ave Apt 1H Howard Beach, NY 11414 ",40.6656299,-73.84713
252 W 30th St Unit 12FLOOR,"New York, NY 10001","252 W 30th St Unit 12FLOOR New York, NY 10001 ",40.749262,-73.994858
604 City Island Ave,"Bronx, NY 10464","604 City Island Ave Bronx, NY 10464 ",40.8547107,-73.7905545
721 Fifth Ave Unit 37A,"New York, NY 10022","721 Fifth Ave Unit 37A New York, NY 10022 ",40.7623124,-73.9738904
10264 188th St,"Hollis, NY 11423","10264 188th St Hollis, NY 11423 ",40.7062824,-73.769384
2808 Wickham Ave,"Bronx, NY 10469","2808 Wickham Ave Bronx, NY 10469 ",40.8679701,-73.836565
951 Sinclair Ave,"Staten Island, NY 10309","951 Sinclair Ave Staten Island, NY 10309 ",40.5389709,-74.2077846
640 W 237th St Apt 7B,"Bronx, NY 10463","640 W 237th St Apt 7B Bronx, NY 10463 ",40.8879694,-73.9121164
530 E 76th St Units 21 & 22EG,"New York, NY 10021","530 E 76th St Units 21 & 22EG New York, NY 10021 ",40.7684839,-73.9500551
127-06 116th Ave,"South Ozone Park, NY 11420","127-06 116th Ave South Ozone Park, NY 11420 ",40.6771144,-73.8113551
2541 72nd St,"East Elmhurst, NY 11370","2541 72nd St East Elmhurst, NY 11370 ",40.7607796,-73.8955214
497 Greenwich St Unit 2C,"Manhattan, NY 10013","497 Greenwich St Unit 2C Manhattan, NY 10013 ",40.7252552,-74.0089423
1 Station Sq Apt 315,"Forest Hills, NY 11375","1 Station Sq Apt 315 Forest Hills, NY 11375 ",40.7194159,-73.8452583
2701 Goethals Rd N Apt D11,"Staten Island, NY 10303","2701 Goethals Rd N Apt D11 Staten Island, NY 10303 ",40.6269261,-74.178922
425 Main St Apt 12D,"New York, NY 10044","425 Main St Apt 12D New York, NY 10044 ",40.7551954,-73.8278786
458 W 20th St Apt 1D,"New York, NY 10011","458 W 20th St Apt 1D New York, NY 10011 ",40.7452111,-74.0044361
531 Main St Apt 1213,"New York, NY 10044","531 Main St Apt 1213 New York, NY 10044 ",40.7295021,-73.8229583
378 Montauk Ave,"Brooklyn, NY 11208","378 Montauk Ave Brooklyn, NY 11208 ",40.6691252,-73.8768482
25-37 Young Ave,"Bronx, NY 10469","25-37 Young Ave Bronx, NY 10469 ",40.8637455,-73.8484401
5703 Avenue O,"Brooklyn, NY 11234","5703 Avenue O Brooklyn, NY 11234 ",40.6172517,-73.9196992
64 W 87th St,"New York, NY 10024","64 W 87th St New York, NY 10024 ",40.7867903,-73.9713686
594 W 152nd St,"New York, NY 10031","594 W 152nd St New York, NY 10031 ",40.8305571,-73.9469634
45 W 70th St,"New York, NY 10023","45 W 70th St New York, NY 10023 ",40.7758086,-73.9785311
1808 Albany Ave,"Brooklyn, NY 11210","1808 Albany Ave Brooklyn, NY 11210 ",40.6290116,-73.936935
78 Eleanor St,"Staten Island, NY 10306","78 Eleanor St Staten Island, NY 10306 ",40.5780299,-74.1298634
8 E 56th St,"Brooklyn, NY 11203","8 E 56th St Brooklyn, NY 11203 ",40.657204,-73.9254582
3724 Barnes Ave,"Bronx, NY 10467","3724 Barnes Ave Bronx, NY 10467 ",40.8812762,-73.8604381
64 W 87th St,"New York, NY 10024","64 W 87th St New York, NY 10024 ",40.7867903,-73.9713686
594 W 152nd St,"New York, NY 10031","594 W 152nd St New York, NY 10031 ",40.8305571,-73.9469634
1808 Albany Ave,"Brooklyn, NY 11210","1808 Albany Ave Brooklyn, NY 11210 ",40.6290116,-73.936935
84-29 155 Ave Unit 1N,"Howard Beach, NY 11414","84-29 155 Ave Unit 1N Howard Beach, NY 11414 ",40.6646299,-73.84991
78 Eleanor St,"Staten Island, NY 10306","78 Eleanor St Staten Island, NY 10306 ",40.5780299,-74.1298634
8 E 56th St,"Brooklyn, NY 11203","8 E 56th St Brooklyn, NY 11203 ",40.657204,-73.9254582
2441 Yates Ave,"Bronx, NY 10469","2441 Yates Ave Bronx, NY 10469 ",40.862331,-73.8551154
3724 Barnes Ave,"Bronx, NY 10467","3724 Barnes Ave Bronx, NY 10467 ",40.8812762,-73.8604381
31-27 Crescent St Apt 3B,"Queens, NY 11106","31-27 Crescent St Apt 3B Queens, NY 11106 ",40.7648725,-73.9267136
1196 Metropolitan Ave Apt 2L,"Brooklyn, NY 11237","1196 Metropolitan Ave Apt 2L Brooklyn, NY 11237 ",40.714033,-73.9290474
3350 Country Club Rd,"Bronx, NY 10465","3350 Country Club Rd Bronx, NY 10465 ",40.8406171,-73.8168828
97-49 91st St,"Ozone Park, NY 11416","97-49 91st St Ozone Park, NY 11416 ",40.683672,-73.849297
66 Buffington Ave,"Staten Island, NY 10312","66 Buffington Ave Staten Island, NY 10312 ",40.5378533,-74.1839184
65-17 77 St,"Middle Village, NY 11379","65-17 77 St Middle Village, NY 11379 ",40.7167406,-73.876979
1399 Park Ave Apt 17A,"New York, NY 10029","1399 Park Ave Apt 17A New York, NY 10029 ",40.791274,-73.948667
755 Calhoun Ave,"Bronx, NY 10465","755 Calhoun Ave Bronx, NY 10465 ",40.8264153,-73.825206
126 Waldron Ave,"Staten Island, NY 10301","126 Waldron Ave Staten Island, NY 10301 ",40.61759,-74.1025922
14 Ottavio Promenade,"Staten Island, NY 10307","14 Ottavio Promenade Staten Island, NY 10307 ",40.502467,-74.2312625
959 First Ave Apt 23H,"New York, NY 10022","959 First Ave Apt 23H New York, NY 10022 ",40.7556512,-73.9652617
187 Rose Ave,"Staten Island, NY 10306","187 Rose Ave Staten Island, NY 10306 ",40.5729513,-74.116783
450 W 17th St Apt 1116,"New York, NY 10011","450 W 17th St Apt 1116 New York, NY 10011 ",40.7435613,-74.0063336
50 W 112th St Apt 4I,"New York, NY 10026","50 W 112th St Apt 4I New York, NY 10026 ",40.7986735,-73.9499869
235 E 55th St Apt 45B,"New York, NY 10022","235 E 55th St Apt 45B New York, NY 10022 ",40.7585686,-73.9669708
1562 Hering Ave,"Bronx, NY 10461","1562 Hering Ave Bronx, NY 10461 ",40.8475919,-73.8467192
339B Harold St,"Staten Island, NY 10314","339B Harold St Staten Island, NY 10314 ",40.6014063,-74.1328172
125 Benedict Rd,"Staten Island, NY 10304","125 Benedict Rd Staten Island, NY 10304 ",40.5961412,-74.1072404
269 W 87th St Apt 3C,"Manhattan, NY 10024","269 W 87th St Apt 3C Manhattan, NY 10024 ",40.7895034,-73.9769713
70 Kell Ave,"Staten Island, NY 10314","70 Kell Ave Staten Island, NY 10314 ",40.6115585,-74.1353966
87-10 51st Ave Apt 6E,"Elmhurst, NY 11373","87-10 51st Ave Apt 6E Elmhurst, NY 11373 ",40.7394899,-73.8740899
54 Waterside St,"Staten Island, NY 10306","54 Waterside St Staten Island, NY 10306 ",40.5639346,-74.0987838
205 E 63rd St Apt 14D,"New York, NY 10065","205 E 63rd St Apt 14D New York, NY 10065 ",40.7641171,-73.9645106
70 Topside Ln,"Staten Island, NY 10309","70 Topside Ln Staten Island, NY 10309 ",40.5310788,-74.240033
310 E 46th St Apt 23U,"Manhattan, NY 10017","310 E 46th St Apt 23U Manhattan, NY 10017 ",40.7520036,-73.9698216
485 Central Park W Apt 2G,"New York, NY 10025","485 Central Park W Apt 2G New York, NY 10025 ",40.7998943,-73.9591725
24 Pennyfield Ave Apt 1C,"Bronx, NY 10465","24 Pennyfield Ave Apt 1C Bronx, NY 10465 ",40.8099528,-73.8021782
69 Marine St,"Bronx, NY 10464","69 Marine St Bronx, NY 10464 ",40.8404512,-73.7858422
1205 Beverley Rd,"Brooklyn, NY 11218","1205 Beverley Rd Brooklyn, NY 11218 ",40.6442661,-73.9674556
2546 Bailey Ave Unit 2FAM,"Bronx, NY 10463","2546 Bailey Ave Unit 2FAM Bronx, NY 10463 ",40.8678944,-73.9078533
2279 Third Ave Apt 3C,"New York, NY 10035","2279 Third Ave Apt 3C New York, NY 10035 ",40.8084946,-73.9312178
212 Wakeman Pl,"Brooklyn, NY 11220","212 Wakeman Pl Brooklyn, NY 11220 ",40.6388441,-74.0262709
743 Hendrix St,"Brooklyn, NY 11207","743 Hendrix St Brooklyn, NY 11207 ",40.6632977,-73.886391
476 St George Rd,"Staten Island, NY 10306","476 St George Rd Staten Island, NY 10306 ",40.5740202,-74.1434018
50 W 112th St Apt 4I,"New York, NY 10026","50 W 112th St Apt 4I New York, NY 10026 ",40.7986735,-73.9499869
339B Harold St,"Staten Island, NY 10314","339B Harold St Staten Island, NY 10314 ",40.6014063,-74.1328172
269 W 87th St Apt 3C,"Manhattan, NY 10024","269 W 87th St Apt 3C Manhattan, NY 10024 ",40.7895034,-73.9769713
125 Benedict Rd,"Staten Island, NY 10304","125 Benedict Rd Staten Island, NY 10304 ",40.5961412,-74.1072404
70 Kell Ave,"Staten Island, NY 10314","70 Kell Ave Staten Island, NY 10314 ",40.6115585,-74.1353966
87-10 51st Ave Apt 6E,"Elmhurst, NY 11373","87-10 51st Ave Apt 6E Elmhurst, NY 11373 ",40.7394899,-73.8740899
54 Waterside St,"Staten Island, NY 10306","54 Waterside St Staten Island, NY 10306 ",40.5639346,-74.0987838
205 E 63rd St Apt 14D,"New York, NY 10065","205 E 63rd St Apt 14D New York, NY 10065 ",40.7641171,-73.9645106
164-50 87th St,"Howard Beach, NY 11414","164-50 87th St Howard Beach, NY 11414 ",40.6485006,-73.8433139
65-06 Grand Central Pkwy Unit 1C,"Forest Hills, NY 11375","65-06 Grand Central Pkwy Unit 1C Forest Hills, NY 11375 ",40.732687,-73.844548
6406 60th Rd,"Maspeth, NY 11378","6406 60th Rd Maspeth, NY 11378 ",40.7175639,-73.8989061
3840 Greystone Ave Apt 3A,"Bronx, NY 10463","3840 Greystone Ave Apt 3A Bronx, NY 10463 ",40.8883333,-73.9047352
1629 Taylor Ave,"Bronx, NY 10460","1629 Taylor Ave Bronx, NY 10460 ",40.8413003,-73.8681705
549 1st St Unit 1,"Brooklyn, NY 11215","549 1st St Unit 1 Brooklyn, NY 11215 ",40.6701939,-73.9738939
2501 Palisade Ave Apt D2,"Bronx, NY 10463","2501 Palisade Ave Apt D2 Bronx, NY 10463 ",40.8799728,-73.9221419
750 Barclay Ave,"Staten Island, NY 10312","750 Barclay Ave Staten Island, NY 10312 ",40.525422,-74.166603
149 11th St Unit TH1,"Brooklyn, NY 11215","149 11th St Unit TH1 Brooklyn, NY 11215 ",40.6707133,-73.992633
1777 Madison Ave Apt 24,"New York, NY 10035","1777 Madison Ave Apt 24 New York, NY 10035 ",40.8003865,-73.9443376
1847 Haight Ave,"Bronx, NY 10461","1847 Haight Ave Bronx, NY 10461 ",40.8509727,-73.8544109
89-23 Lefferts Blvd,"Richmond Hill, NY 11418","89-23 Lefferts Blvd Richmond Hill, NY 11418 ",40.6967601,-73.8290033
105 Reade St,"Manhattan, NY 10013","105 Reade St Manhattan, NY 10013 ",40.7156407,-74.0084601
5517 Fieldston Rd,"Bronx, NY 10471","5517 Fieldston Rd Bronx, NY 10471 ",40.9045537,-73.9005738
1310 Kearney Ave,"Bronx, NY 10465","1310 Kearney Ave Bronx, NY 10465 ",40.8390856,-73.8244408
43-17 53 St,"Woodside, NY 11377","43-17 53 St Woodside, NY 11377 ",40.7432798,-73.9115967
2767 Creston Ave,"Bronx, NY 10468","2767 Creston Ave Bronx, NY 10468 ",40.8698859,-73.8931185
1150 Schenectady Ave,"Brooklyn, NY 11203","1150 Schenectady Ave Brooklyn, NY 11203 ",40.6448529,-73.9328476
416 W 52nd St Unit TH213,"New York, NY 10019","416 W 52nd St Unit TH213 New York, NY 10019 ",40.7648013,-73.9891282
19 Milford St,"Brooklyn, NY 11208","19 Milford St Brooklyn, NY 11208 ",40.6792011,-73.8780251
64 Garretson Ave,"Staten Island, NY 10304","64 Garretson Ave Staten Island, NY 10304 ",40.5905987,-74.0988991
1660 Nostrand Ave,"Brooklyn, NY 11226","1660 Nostrand Ave Brooklyn, NY 11226 ",40.6456446,-73.9492868
218 Classon Ave Unit DPLX-A,"Brooklyn, NY 11205","218 Classon Ave Unit DPLX-A Brooklyn, NY 11205 ",40.6930538,-73.9610921
277 Graff Ave,"Bronx, NY 10465","277 Graff Ave Bronx, NY 10465 ",40.8158574,-73.8241527
1910 Pelham Pkwy S Apt 5C,"Bronx, NY 10461","1910 Pelham Pkwy S Apt 5C Bronx, NY 10461 ",40.85549,-73.8294879
100 Remsen St Apt 5A,"Brooklyn, NY 11201","100 Remsen St Apt 5A Brooklyn, NY 11201 ",40.6939679,-73.9945861
3005 Edson Ave,"Bronx, NY 10469","3005 Edson Ave Bronx, NY 10469 ",40.872083,-73.835294
27010 Grand Central Pkwy Apt 28S,"Floral Park, NY 11005","27010 Grand Central Pkwy Apt 28S Floral Park, NY 11005 ",40.7566899,-73.72075
1040 Van Duzer St,"New York, NY 10304","1040 Van Duzer St New York, NY 10304 ",40.613832,-74.087628
234 E 23rd St Apt 18B,"Manhattan, NY 10010","234 E 23rd St Apt 18B Manhattan, NY 10010 ",40.7379759,-73.9818457
1917 Monterey Ave,"Bronx, NY 10457","1917 Monterey Ave Bronx, NY 10457 ",40.8470177,-73.8953176
100 Park Ter W Apt 5F,"Manhattan, NY 10034","100 Park Ter W Apt 5F Manhattan, NY 10034 ",40.8717961,-73.916064
77 Wirt Ave,"Staten Island, NY 10309","77 Wirt Ave Staten Island, NY 10309 ",40.5481185,-74.2165633
9-06 27th Ave,"Astoria, NY 11102","9-06 27th Ave Astoria, NY 11102 ",40.7736441,-73.9309039
153 Joralemon St Apt 3R,"Brooklyn, NY 11201","153 Joralemon St Apt 3R Brooklyn, NY 11201 ",40.693067,-73.993337
153-10 89th Ave,"Jamaica, NY 11432","153-10 89th Ave Jamaica, NY 11432 ",40.705144,-73.8030045
147 Edgewater Park Unit D,"Bronx, NY 10465","147 Edgewater Park Unit D Bronx, NY 10465 ",40.8230851,-73.8113004
89 W 119th St,"Manhattan, NY 10026","89 W 119th St Manhattan, NY 10026 ",40.8039536,-73.9475234
1410 E 100th St,"Brooklyn, NY 11236","1410 E 100th St Brooklyn, NY 11236 ",40.6366029,-73.8891641
55 Wall St Apt 700,"New York, NY 10005","55 Wall St Apt 700 New York, NY 10005 ",40.7059312,-74.0093393
2998 Fulton St,"Brooklyn, NY 11208","2998 Fulton St Brooklyn, NY 11208 ",40.6799197,-73.8839962
2994 Fulton St,"Brooklyn, NY 11208","2994 Fulton St Brooklyn, NY 11208 ",40.6798467,-73.8841577
140 Dawson Cir,"Staten Island, NY 10314","140 Dawson Cir Staten Island, NY 10314 ",40.6045567,-74.1674571
2251 Knapp St Apt 6L,"Brooklyn, NY 11229","2251 Knapp St Apt 6L Brooklyn, NY 11229 ",40.5983936,-73.9334942
104-30 Jamaica Ave,"Richmond Hill, NY 11418","104-30 Jamaica Ave Richmond Hill, NY 11418 ",40.6950229,-73.8423205
1163 Fulton St,"Brooklyn, NY 11216","1163 Fulton St Brooklyn, NY 11216 ",40.6812106,-73.9550511
1118 Fulton St # 2R,"Brooklyn, NY 11238","1118 Fulton St # 2R Brooklyn, NY 11238 ",40.6810835,-73.9562728
754 E 211th St,"Bronx, NY 10467","754 E 211th St Bronx, NY 10467 ",40.8773268,-73.8633173
Douglas Rd,"Staten Island, NY 10304","Douglas Rd Staten Island, NY 10304 ",40.6071917,-74.0944368
247 W 46th St Ph 2,"Manhattan, NY 10036","247 W 46th St Ph 2 Manhattan, NY 10036 ",40.7598688,-73.9876208
Van Duzer,"Staten Island, NY 10304","Van Duzer Staten Island, NY 10304 ",40.6273568,-74.081577
211 Beverley Rd,"Brooklyn, NY 11218","211 Beverley Rd Brooklyn, NY 11218 ",40.6431644,-73.9778348
1696 Pacific St,"Brooklyn, NY 11213","1696 Pacific St Brooklyn, NY 11213 ",40.6765391,-73.9325257
933 E 22nd St,"Brooklyn, NY 11210","933 E 22nd St Brooklyn, NY 11210 ",40.629459,-73.9548331
2612 W 15th St,"Brooklyn, NY 11214","2612 W 15th St Brooklyn, NY 11214 ",40.584279,-73.9841063
680-684 Van Duzer,"Staten Island, NY 10304","680-684 Van Duzer Staten Island, NY 10304 ",40.6230694,-74.0853792
2251 Knapp St Apt 6L,"Brooklyn, NY 11229","2251 Knapp St Apt 6L Brooklyn, NY 11229 ",40.5983936,-73.9334942
1118 Fulton St # 2R,"Brooklyn, NY 11238","1118 Fulton St # 2R Brooklyn, NY 11238 ",40.6810835,-73.9562728
247 W 46th St Ph 2,"Manhattan, NY 10036","247 W 46th St Ph 2 Manhattan, NY 10036 ",40.7598688,-73.9876208
211 Beverley Rd,"Brooklyn, NY 11218","211 Beverley Rd Brooklyn, NY 11218 ",40.6431644,-73.9778348
2612 W 15th St,"Brooklyn, NY 11214","2612 W 15th St Brooklyn, NY 11214 ",40.584279,-73.9841063
1696 Pacific St,"Brooklyn, NY 11213","1696 Pacific St Brooklyn, NY 11213 ",40.6765391,-73.9325257
3115 Glenwood Rd,"Brooklyn, NY 11210","3115 Glenwood Rd Brooklyn, NY 11210 ",40.6343017,-73.9462966
933 E 22nd St,"Brooklyn, NY 11210","933 E 22nd St Brooklyn, NY 11210 ",40.629459,-73.9548331
680-684 Van Duzer,"Staten Island, NY 10304","680-684 Van Duzer Staten Island, NY 10304 ",40.6230694,-74.0853792
251 W 14th St Unit Penthouse,"New York, NY 10011","251 W 14th St Unit Penthouse New York, NY 10011 ",40.7396939,-74.0016366
764 E 221st St,"Bronx, NY 10467","764 E 221st St Bronx, NY 10467 ",40.8841204,-73.8598338
1118 Fulton St # 3F,"Brooklyn, NY 11238","1118 Fulton St # 3F Brooklyn, NY 11238 ",40.6810835,-73.9562728
5265 Arthur Kill Rd,"Staten Island, NY 10307","5265 Arthur Kill Rd Staten Island, NY 10307 ",40.5153536,-74.2450788
65 Short Hill Rd,"Queens, NY 11375","65 Short Hill Rd Queens, NY 11375 ",40.7125557,-73.840459
2321 Pitkin Ave,"Brooklyn, NY 11207","2321 Pitkin Ave Brooklyn, NY 11207 ",40.6733836,-73.8866758
1118 Fulton St # 6R,"Brooklyn, NY 11238","1118 Fulton St # 6R Brooklyn, NY 11238 ",40.6810835,-73.9562728
3309 Delavall Ave,"Bronx, NY 10475","3309 Delavall Ave Bronx, NY 10475 ",40.8447819,-73.8648268
3210 Hull Ave,"Bronx, NY 10467","3210 Hull Ave Bronx, NY 10467 ",40.874367,-73.876144
"100 Savoy St Lots 1,39,43,45,46","Staten Island, NY 10306","100 Savoy St Lots 1,39,43,45,46 Staten Island, NY 10306 ",40.5643088,-74.1309775
Woodrow Rd,"Staten Island, NY 10312","Woodrow Rd Staten Island, NY 10312 ",40.5481404,-74.1897423
437 W 43rd St Apt 1,"New York, NY 10036","437 W 43rd St Apt 1 New York, NY 10036 ",40.7599124,-73.9934614
34 Journeay St,"Staten Island, NY 10303","34 Journeay St Staten Island, NY 10303 ",40.6320096,-74.1591548
Savoy St Lot 12,"Staten Island, NY 10306","Savoy St Lot 12 Staten Island, NY 10306 ",40.5643088,-74.1309775
14 Savoy St Lot 14,"New York, NY 10306","14 Savoy St Lot 14 New York, NY 10306 ",40.5643088,-74.1309775
84 Wolcott Ave,"Staten Island, NY 10312","84 Wolcott Ave Staten Island, NY 10312 ",40.5494701,-74.177677
1 Wall St Apt 4101,"Manhattan, NY 10005","1 Wall St Apt 4101 Manhattan, NY 10005 ",40.7075029,-74.011653
16 Savoy Lot 16,"Staten Island, NY 10306","16 Savoy Lot 16 Staten Island, NY 10306 ",40.5643088,-74.1309775
50 W 66th St Apt 62,"New York, NY 10023","50 W 66th St Apt 62 New York, NY 10023 ",40.7730497,-73.9804663
162-07 Cryders Ln,"Whitestone, NY 11357","162-07 Cryders Ln Whitestone, NY 11357 ",40.7883534,-73.8002285
106 W 116th St Ph 1B,"Manhattan, NY 10026","106 W 116th St Ph 1B Manhattan, NY 10026 ",40.8021438,-73.9504252
47 Rockwell Ave,"Staten Island, NY 10305","47 Rockwell Ave Staten Island, NY 10305 ",40.6075423,-74.0785031
3105 Brighton 3 St Unit 3E,"Brooklyn, NY 11235","3105 Brighton 3 St Unit 3E Brooklyn, NY 11235 ",40.5763492,-73.9638773
31 Fingal St,"Staten Island, NY 10312","31 Fingal St Staten Island, NY 10312 ",40.5381044,-74.1689581
99-60 63rd Rd Unit 1B,"Rego Park, NY 11374","99-60 63rd Rd Unit 1B Rego Park, NY 11374 ",40.7325099,-73.85704
17 E 9th St,"Manhattan, NY 10003","17 E 9th St Manhattan, NY 10003 ",40.7325074,-73.9947793
10323 107th St,"Ozone Park, NY 11417","10323 107th St Ozone Park, NY 11417 ",40.6844724,-73.8345897
117-55 140th St,"Jamaica, NY 11436","117-55 140th St Jamaica, NY 11436 ",40.6766385,-73.8009064
44 Rutland Rd,"Brooklyn, NY 11225","44 Rutland Rd Brooklyn, NY 11225 ",40.6587003,-73.9590451
101-11 158th Ave,"Howard Beach, NY 11414","101-11 158th Ave Howard Beach, NY 11414 ",40.6621623,-73.8324343
401 E 60th St Apt 5N,"New York, NY 10022","401 E 60th St Apt 5N New York, NY 10022 ",40.7603751,-73.960678
119 Pioneer St,"Brooklyn, NY 11231","119 Pioneer St Brooklyn, NY 11231 ",40.6784668,-74.0106385
232 W 15th St,"Manhattan, NY 10011","232 W 15th St Manhattan, NY 10011 ",40.7397699,-74.0008048
251 W 14th St Apt 4B,"New York, NY 10011","251 W 14th St Apt 4B New York, NY 10011 ",40.7396939,-74.0016366
102-05 217th St,"Queens Village, NY 11429","102-05 217th St Queens Village, NY 11429 ",40.7133288,-73.7411183
1431 E 108th St Apt 10E,"Brooklyn, NY 11236","1431 E 108th St Apt 10E Brooklyn, NY 11236 ",40.6399821,-73.8817455
1246 E 100th St,"Brooklyn, NY 11236","1246 E 100th St Brooklyn, NY 11236 ",40.6392831,-73.8921065
495 E 178th St Apt 3C,"Bronx, NY 10457","495 E 178th St Apt 3C Bronx, NY 10457 ",40.8483177,-73.8966103
2550 Independence Ave Apt 7G,"Bronx, NY 10463","2550 Independence Ave Apt 7G Bronx, NY 10463 ",40.880277,-73.9207128
42-18 66th St,"Woodside, NY 11377","42-18 66th St Woodside, NY 11377 ",40.7427181,-73.8984993
2 E 55th St Unit 901,"New York, NY 10022","2 E 55th St Unit 901 New York, NY 10022 ",40.761255,-73.9744834
36 Hamilton Ave Apt 6S,"Staten Island, NY 10301","36 Hamilton Ave Apt 6S Staten Island, NY 10301 ",40.6449461,-74.0789077
2166 Broadway Apt 7A,"Manhattan, NY 10024","2166 Broadway Apt 7A Manhattan, NY 10024 ",40.7818158,-73.9805466
131 Garfield Pl,"Brooklyn, NY 11215","131 Garfield Pl Brooklyn, NY 11215 ",40.6739173,-73.9799382
123 E 35th St,"New York, NY 10016","123 E 35th St New York, NY 10016 ",40.747472,-73.9796788
2011 Pearson St Unit 81F,"Brooklyn, NY 11234","2011 Pearson St Unit 81F Brooklyn, NY 11234 ",40.6141458,-73.9197937
258 Riverside Dr,"New York, NY 10025","258 Riverside Dr New York, NY 10025 ",40.7968705,-73.9735576
7122 66th Dr,"Middle Village, NY 11379","7122 66th Dr Middle Village, NY 11379 ",40.7131664,-73.8834161
45-10 165th St,"Flushing, NY 11358","45-10 165th St Flushing, NY 11358 ",40.7558459,-73.8020409
54 Edgecombe Ave,"Manhattan, NY 10030","54 Edgecombe Ave Manhattan, NY 10030 ",40.8185341,-73.9466114
1311 Needham Ave,"Bronx, NY 10469","1311 Needham Ave Bronx, NY 10469 ",40.8781995,-73.8523833
33 Tier St Apt B2,"Bronx, NY 10464","33 Tier St Apt B2 Bronx, NY 10464 ",40.8480122,-73.7902965
224 W 262nd St,"Bronx, NY 10471","224 W 262nd St Bronx, NY 10471 ",40.9105481,-73.8979306
11639 192nd St,"Saint Albans, NY 11412","11639 192nd St Saint Albans, NY 11412 ",40.6930156,-73.7594498
210 Thompson St Apt 4BN,"Manhattan, NY 10012","210 Thompson St Apt 4BN Manhattan, NY 10012 ",40.7287277,-73.9991094
1469 West Ave Apt 4D,"Bronx, NY 10462","1469 West Ave Apt 4D Bronx, NY 10462 ",40.8377326,-73.8617976
2032 79th St,"Brooklyn, NY 11214","2032 79th St Brooklyn, NY 11214 ",40.607912,-73.9934594
768 Brady Ave Apt 246,"Pelham, NY 10462","768 Brady Ave Apt 246 Pelham, NY 10462 ",40.8522262,-73.8650305
1735 Purdy St Apt 5A,"Bronx, NY 10462","1735 Purdy St Apt 5A Bronx, NY 10462 ",40.84057,-73.8588591
45 Walker St # #ph,"New York, NY 10013","45 Walker St # #ph New York, NY 10013 ",40.7190035,-74.0038296
259-03 81st Ave,"Glen Oaks, NY 11004","259-03 81st Ave Glen Oaks, NY 11004 ",40.7430254,-73.7112735
264 Hemlock St,"Brooklyn, NY 11208","264 Hemlock St Brooklyn, NY 11208 ",40.6833189,-73.8712816
4 48th Ave Unit 38E,"Queens, NY 11109","4 48th Ave Unit 38E Queens, NY 11109 ",40.7442003,-73.9568378
4590 Henry Hudson Pkwy,"Bronx, NY 10471","4590 Henry Hudson Pkwy Bronx, NY 10471 ",40.893352,-73.9077676
302 96th St Apt 5W,"Brooklyn, NY 11209","302 96th St Apt 5W Brooklyn, NY 11209 ",40.616363,-74.0339216
1711 Mansion St,"Bronx, NY 10460","1711 Mansion St Bronx, NY 10460 ",40.8381531,-73.8711709
6015 Independence Ave,"Bronx, NY 10471","6015 Independence Ave Bronx, NY 10471 ",40.9105146,-73.9065194
143 Roman Ave,"Staten Island, NY 10314","143 Roman Ave Staten Island, NY 10314 ",40.6157838,-74.1655598
25-46 47th St,"Astoria, NY 11103","25-46 47th St Astoria, NY 11103 ",40.7642663,-73.907251
68 Signal Hill Rd,"Staten Island, NY 10301","68 Signal Hill Rd Staten Island, NY 10301 ",40.6179252,-74.0888703
170 W 74th St Apt 303,"New York, NY 10023","170 W 74th St Apt 303 New York, NY 10023 ",40.7794608,-73.979919
4094 Richmond Ave,"Staten Island, NY 10312","4094 Richmond Ave Staten Island, NY 10312 ",40.5387405,-74.1602488
,,  ,,
590 E 83rd St Unit 1,"Brooklyn, NY 11236","590 E 83rd St Unit 1 Brooklyn, NY 11236 ",40.6402056,-73.915061
540 Argyle Rd,"Brooklyn, NY 11230","540 Argyle Rd Brooklyn, NY 11230 ",40.6359492,-73.9654949
129 Slosson Ave,"Staten Island, NY 10314","129 Slosson Ave Staten Island, NY 10314 ",40.617714,-74.117504
1273 Prospect Ave Apt 2,"Brooklyn, NY 11218","1273 Prospect Ave Apt 2 Brooklyn, NY 11218 ",40.6521399,-73.9756127
30-46 88th St,"East Elmhurst, NY 11369","30-46 88th St East Elmhurst, NY 11369 ",40.7604117,-73.8807696
2775 Cross Bronx Expy,"Bronx, NY 10465","2775 Cross Bronx Expy Bronx, NY 10465 ",40.8335683,-73.8630124
32 Brunswick St,"Staten Island, NY 10314","32 Brunswick St Staten Island, NY 10314 ",40.58431,-74.1582711
75 Wall St Apt 29C,"New York, NY 10005","75 Wall St Apt 29C New York, NY 10005 ",40.705042,-74.0081176
125 Beadel St Unit House,"Brooklyn, NY 11222","125 Beadel St Unit House Brooklyn, NY 11222 ",40.7223187,-73.9359737
84-58 Homelawn St,"Jamaica, NY 11432","84-58 Homelawn St Jamaica, NY 11432 ",40.7157643,-73.7929487
1456 E 70th St,"Brooklyn, NY 11234","1456 E 70th St Brooklyn, NY 11234 ",40.6213353,-73.9106705
3816 Aa Cypress Ave,"Brooklyn, NY 11224","3816 Aa Cypress Ave Brooklyn, NY 11224 ",40.578694,-74.0059517
87 Heron Ln Unit 436,"Bronx, NY 10473","87 Heron Ln Unit 436 Bronx, NY 10473 ",40.8056747,-73.850607
2650 Ocean Pkwy Apt 8C,"Brooklyn, NY 11235","2650 Ocean Pkwy Apt 8C Brooklyn, NY 11235 ",40.585387,-73.9666176
48-06 Glenwood St,"Little Neck, NY 11362","48-06 Glenwood St Little Neck, NY 11362 ",40.7697776,-73.7314743
151 Goff Ave,"Staten Island, NY 10309","151 Goff Ave Staten Island, NY 10309 ",40.5283747,-74.2128789
95 Pelton Ave,"Staten Island, NY 10310","95 Pelton Ave Staten Island, NY 10310 ",40.6411961,-74.1112459
1755 Benson Ave Unit 3A,"Brooklyn, NY 11214","1755 Benson Ave Unit 3A Brooklyn, NY 11214 ",40.6060801,-74.004919
1068 51st St,"Brooklyn, NY 11219","1068 51st St Brooklyn, NY 11219 ",40.6367429,-73.9983593
1430 Seagirt Blvd Apt 2G,"Far Rockaway, NY 11691","1430 Seagirt Blvd Apt 2G Far Rockaway, NY 11691 ",40.595796,-73.749492
1499 Dekalb Ave,"Brooklyn, NY 11237","1499 Dekalb Ave Brooklyn, NY 11237 ",40.7018129,-73.9219852
134th 237 St Unit 2W,"New York, NY 10030","134th 237 St Unit 2W New York, NY 10030 ",40.8134831,-73.9414439
88-23 75th St,"Woodhaven, NY 11421","88-23 75th St Woodhaven, NY 11421 ",40.68876,-73.8656415
185-11 Murdock Ave,"Saint Albans, NY 11412","185-11 Murdock Ave Saint Albans, NY 11412 ",40.6970431,-73.7690563
74 Harris Ln,"Staten Island, NY 10309","74 Harris Ln Staten Island, NY 10309 ",40.54271,-74.220909
8 Hitchings Ave,"Brooklyn, NY 11235","8 Hitchings Ave Brooklyn, NY 11235 ",40.5845138,-73.9391853
4401 4th Ave Apt A2,"Brooklyn, NY 11220","4401 4th Ave Apt A2 Brooklyn, NY 11220 ",40.6496759,-74.0089922
4380 Vireo Ave Apt 4A,"Bronx, NY 10470","4380 Vireo Ave Apt 4A Bronx, NY 10470 ",40.9010257,-73.8626313
246 Spring St Unit 3008,"Manhattan, NY 10013","246 Spring St Unit 3008 Manhattan, NY 10013 ",40.7253082,-74.005407
553 W 182nd St Unit 5R,"Manhattan, NY 10033","553 W 182nd St Unit 5R Manhattan, NY 10033 ",40.8495855,-73.9320408
622 Foster Ave Unit 6F,"Brooklyn, NY 11230","622 Foster Ave Unit 6F Brooklyn, NY 11230 ",40.6302573,-73.9704972
151 84th Rd,"Queens, NY 11432","151 84th Rd Queens, NY 11432 ",40.7132906,-73.8087391
45 78th St,"Brooklyn, NY 11209","45 78th St Brooklyn, NY 11209 ",40.631218,-74.0360024
16 Sky Ln,"Staten Island, NY 10304","16 Sky Ln Staten Island, NY 10304 ",40.614228,-74.0779603
160 72nd St Apt 798,"Brooklyn, NY 11209","160 72nd St Apt 798 Brooklyn, NY 11209 ",40.6343667,-74.0311335
397 Bainbridge St,"Brooklyn, NY 11233","397 Bainbridge St Brooklyn, NY 11233 ",40.6823204,-73.9208861
558 W 150th St Apt 301,"Manhattan, NY 10031","558 W 150th St Apt 301 Manhattan, NY 10031 ",40.8289929,-73.9472849
1495 E 28th St Apt 6D,"Brooklyn, NY 11229","1495 E 28th St Apt 6D Brooklyn, NY 11229 ",40.6145186,-73.9462366
258 Clifton Pl,"Brooklyn, NY 11216","258 Clifton Pl Brooklyn, NY 11216 ",40.6886508,-73.9539462
1428 E 48th St,"Brooklyn, NY 11234","1428 E 48th St Brooklyn, NY 11234 ",40.6262591,-73.9298571
622 Foster Ave Unit 6F,"Brooklyn, NY 11230","622 Foster Ave Unit 6F Brooklyn, NY 11230 ",40.6302573,-73.9704972
246 Spring St Unit 3008,"Manhattan, NY 10013","246 Spring St Unit 3008 Manhattan, NY 10013 ",40.7253082,-74.005407
553 W 182nd St Unit 5R,"Manhattan, NY 10033","553 W 182nd St Unit 5R Manhattan, NY 10033 ",40.8495855,-73.9320408
151 84th Rd,"Queens, NY 11432","151 84th Rd Queens, NY 11432 ",40.7132906,-73.8087391
45 78th St,"Brooklyn, NY 11209","45 78th St Brooklyn, NY 11209 ",40.631218,-74.0360024
558 W 150th St Apt 301,"Manhattan, NY 10031","558 W 150th St Apt 301 Manhattan, NY 10031 ",40.8289929,-73.9472849
16 Sky Ln,"Staten Island, NY 10304","16 Sky Ln Staten Island, NY 10304 ",40.614228,-74.0779603
160 72nd St Apt 798,"Brooklyn, NY 11209","160 72nd St Apt 798 Brooklyn, NY 11209 ",40.6343667,-74.0311335
1495 E 28th St Apt 6D,"Brooklyn, NY 11229","1495 E 28th St Apt 6D Brooklyn, NY 11229 ",40.6145186,-73.9462366
49-53 Fresh Meadow Ln,"Fresh Meadows, NY 11365","49-53 Fresh Meadow Ln Fresh Meadows, NY 11365 ",40.7456628,-73.7942037
258 Clifton Pl,"Brooklyn, NY 11216","258 Clifton Pl Brooklyn, NY 11216 ",40.6886508,-73.9539462
41 Simonson Pl,"Staten Island, NY 10302","41 Simonson Pl Staten Island, NY 10302 ",40.6336388,-74.1304393
640 W 231st St Apt 5F,"Bronx, NY 10463","640 W 231st St Apt 5F Bronx, NY 10463 ",40.8831224,-73.9146761
1428 E 48th St,"Brooklyn, NY 11234","1428 E 48th St Brooklyn, NY 11234 ",40.6262591,-73.9298571
877 Travis Ave,"Staten Island, NY 10314","877 Travis Ave Staten Island, NY 10314 ",40.5938653,-74.1660967
1396 E 38th St,"Brooklyn, NY 11234","1396 E 38th St Brooklyn, NY 11234 ",40.6199669,-73.9381604
10 W 66th St Unit 22ABC,"Manhattan, NY 10023","10 W 66th St Unit 22ABC Manhattan, NY 10023 ",40.7726542,-73.9796704
834 Riverside Dr Unit E6,"Manhattan, NY 10032","834 Riverside Dr Unit E6 Manhattan, NY 10032 ",40.8360656,-73.945595
70 Remsen St Apt 7E,"Brooklyn, NY 11201","70 Remsen St Apt 7E Brooklyn, NY 11201 ",40.6942807,-73.9958146
433 W 54th St Unit Multi,"Manhattan, NY 10019","433 W 54th St Unit Multi Manhattan, NY 10019 ",40.7664767,-73.9888899
6 Morton St,"Manhattan, NY 10014","6 Morton St Manhattan, NY 10014 ",40.7312875,-74.0033988
1259 Grant Ave Apt 7B,"Bronx, NY 10456","1259 Grant Ave Apt 7B Bronx, NY 10456 ",40.8344188,-73.9147869
54 Mitchell Ln Unit B,"Staten Island, NY 10302","54 Mitchell Ln Unit B Staten Island, NY 10302 ",40.629871,-74.1315888
3424 Tiemann Ave,"Bronx, NY 10469","3424 Tiemann Ave Bronx, NY 10469 ",40.8778496,-73.8435248
84-70 129th St Unit 6A,"Kew Gardens, NY 11415","84-70 129th St Unit 6A Kew Gardens, NY 11415 ",40.7069299,-73.82404
43 Lerer Ln,"Staten Island, NY 10307","43 Lerer Ln Staten Island, NY 10307 ",40.5065659,-74.2315742
761 E 22nd St,"Brooklyn, NY 11210","761 E 22nd St Brooklyn, NY 11210 ",40.6336924,-73.955657
2569 W 2nd St Apt 4C,"Brooklyn, NY 11223","2569 W 2nd St Apt 4C Brooklyn, NY 11223 ",40.5867744,-73.971215
73 42 255 St Unit GV69H21,"Glen Oaks, NY 11004","73 42 255 St Unit GV69H21 Glen Oaks, NY 11004 ",40.7426715,-73.7154342
106 Montgomery Ave,"Staten Island, NY 10301","106 Montgomery Ave Staten Island, NY 10301 ",40.6392248,-74.0783904
84-17 Midland Pkwy,"Jamaica, NY 11432","84-17 Midland Pkwy Jamaica, NY 11432 ",40.7183672,-73.7846353
25 Strawberry Ln,"Staten Island, NY 10312","25 Strawberry Ln Staten Island, NY 10312 ",40.5292655,-74.1588655
178 Mackenzie St,"Brooklyn, NY 11235","178 Mackenzie St Brooklyn, NY 11235 ",40.5789529,-73.9402042
686 E 220th St,"Bronx, NY 10467","686 E 220th St Bronx, NY 10467 ",40.8843183,-73.8630565
162-01 Powells Cove Blvd Unit 5J,"Whitestone, NY 11357","162-01 Powells Cove Blvd Unit 5J Whitestone, NY 11357 ",40.7941499,-73.79959
24-21 42nd St,"Astoria, NY 11103","24-21 42nd St Astoria, NY 11103 ",40.7678207,-73.9093212
2106 Rene Ct,"Ridgewood, NY 11385","2106 Rene Ct Ridgewood, NY 11385 ",40.712233,-73.910769
217 W 57th St Apt 97E,"New York, NY 10019","217 W 57th St Apt 97E New York, NY 10019 ",40.766474,-73.981266
230 W End Ave Apt 5B,"Manhattan, NY 10023","230 W End Ave Apt 5B Manhattan, NY 10023 ",40.7786996,-73.9850763
223 Hillman Ave,"Staten Island, NY 10314","223 Hillman Ave Staten Island, NY 10314 ",40.6109132,-74.1640441
7124 163rd St Unit 3B,"Fresh Meadows, NY 11365","7124 163rd St Unit 3B Fresh Meadows, NY 11365 ",40.7296497,-73.8065583
80-39 249th St,"Bellerose, NY 11426","80-39 249th St Bellerose, NY 11426 ",40.7416625,-73.720417
53 53rd St W Ph 76,"New York, NY 10019","53 53rd St W Ph 76 New York, NY 10019 ",40.7617694,-73.9780863
555 Lenox Ave Unit 1A,"Manhattan, NY 10030","555 Lenox Ave Unit 1A Manhattan, NY 10030 ",40.8162301,-73.9396922
993 5th Ave Unit 4,"Manhattan, NY 10028","993 5th Ave Unit 4 Manhattan, NY 10028 ",40.777821,-73.962683
1908 Gerritsen Ave,"Brooklyn, NY 11229","1908 Gerritsen Ave Brooklyn, NY 11229 ",40.6062522,-73.9404313
2934 Brighton 4th St Unit A,"Brooklyn, NY 11235","2934 Brighton 4th St Unit A Brooklyn, NY 11235 ",40.5801047,-73.9645861
253 Weed Ave,"Staten Island, NY 10306","253 Weed Ave Staten Island, NY 10306 ",40.5618536,-74.1092746
252-51 63rd Ave Unit 5A,"Little Neck, NY 11362","252-51 63rd Ave Unit 5A Little Neck, NY 11362 ",40.7569043,-73.7251843
80 Knolls Cres Apt 6B,"Bronx, NY 10463","80 Knolls Cres Apt 6B Bronx, NY 10463 ",40.879068,-73.9180434
45 Sleepy Hollow Rd,"Staten Island, NY 10314","45 Sleepy Hollow Rd Staten Island, NY 10314 ",40.5945662,-74.1656835
21-22 202nd St Unit Upper,"Bayside, NY 11360","21-22 202nd St Unit Upper Bayside, NY 11360 ",40.7781663,-73.7916594
91-12 85 Rd,"Woodhaven, NY 11421","91-12 85 Rd Woodhaven, NY 11421 ",40.6958578,-73.8539492
1122 E 89th St,"Brooklyn, NY 11236","1122 E 89th St Brooklyn, NY 11236 ",40.6358438,-73.9027874
2080 Barnes Ave Apt 5A,"Bronx, NY 10462","2080 Barnes Ave Apt 5A Bronx, NY 10462 ",40.8529507,-73.8637211
102 Bradhurst Ave Apt 808,"New York, NY 10039","102 Bradhurst Ave Apt 808 New York, NY 10039 ",40.8247564,-73.9415389
826 Leland Ave Unit 16C,"Bronx, NY 10473","826 Leland Ave Unit 16C Bronx, NY 10473 ",40.8225875,-73.8610478
1100 Clove Rd Apt 9E,"Staten Island, NY 10301","1100 Clove Rd Apt 9E Staten Island, NY 10301 ",40.62108,-74.1110175
60 82nd St,"Brooklyn, NY 11209","60 82nd St Brooklyn, NY 11209 ",40.6279899,-74.0375351
83 Meisner Ave,"Staten Island, NY 10306","83 Meisner Ave Staten Island, NY 10306 ",40.5809486,-74.1318695
5041 Goodridge Ave,"Bronx, NY 10471","5041 Goodridge Ave Bronx, NY 10471 ",40.8985244,-73.9027464
17 Queensdale St,"Staten Island, NY 10309","17 Queensdale St Staten Island, NY 10309 ",40.52876,-74.1995049
408 Thomas St,"Staten Island, NY 10306","408 Thomas St Staten Island, NY 10306 ",40.5700408,-74.1419568
1939 E 38th St,"Brooklyn, NY 11234","1939 E 38th St Brooklyn, NY 11234 ",40.6116803,-73.9306723
2763 Fish Ave,"Bronx, NY 10469","2763 Fish Ave Bronx, NY 10469 ",40.8671514,-73.8472917
5433 Arnold Ave,"Maspeth, NY 11378","5433 Arnold Ave Maspeth, NY 11378 ",40.71413,-73.910159
310 E 46th St # 22MT,"New York, NY 10017","310 E 46th St # 22MT New York, NY 10017 ",40.7520036,-73.9698216
254-07 73 Road Oaks Gln Unit 1ST,"Glen Oaks, NY 11004","254-07 73 Road Oaks Gln Unit 1ST Glen Oaks, NY 11004 ",40.749681,-73.7193956
1747 Stuart St,"Brooklyn, NY 11229","1747 Stuart St Brooklyn, NY 11229 ",40.6096264,-73.9422062
63-36 99th St Unit 3K,"Rego Park, NY 11374","63-36 99th St Unit 3K Rego Park, NY 11374 ",40.7318677,-73.8571116
6 Sutton Sq,"Manhattan, NY 10022","6 Sutton Sq Manhattan, NY 10022 ",40.7576897,-73.9598074
25 Tudor City Pl Apt 1309,"Manhattan, NY 10017","25 Tudor City Pl Apt 1309 Manhattan, NY 10017 ",40.7484484,-73.9706936
355 Greenwich St # #ph,"New York, NY 10013","355 Greenwich St # #ph New York, NY 10013 ",40.7189646,-74.0101127
218 N 5th St,"Brooklyn, NY 11211","218 N 5th St Brooklyn, NY 11211 ",40.7149495,-73.9562714
7901 4th Ave Apt E10,"Brooklyn, NY 11209","7901 4th Ave Apt E10 Brooklyn, NY 11209 ",40.6279352,-74.0260154
151-14 84th Rd,"Jamaica, NY 11432","151-14 84th Rd Jamaica, NY 11432 ",40.7130635,-73.8083366
231 Lincoln Rd,"Brooklyn, NY 11225","231 Lincoln Rd Brooklyn, NY 11225 ",40.6615323,-73.9549906
301 E 52nd St,"Brooklyn, NY 11203","301 E 52nd St Brooklyn, NY 11203 ",40.6534834,-73.9283496
14-30 Seagirt Blvd Unit 4C,"Far Rockaway, NY 11691","14-30 Seagirt Blvd Unit 4C Far Rockaway, NY 11691 ",40.595796,-73.749492
635 W 42nd St Apt 42K,"Manhattan, NY 10036","635 W 42nd St Apt 42K Manhattan, NY 10036 ",40.7617015,-73.9995109
740 Park Ave # 6 & 7D,"New York, NY 10021","740 Park Ave # 6 & 7D New York, NY 10021 ",40.7707516,-73.9645283
2 River Ter Unit 15R,"New York, NY 10282","2 River Ter Unit 15R New York, NY 10282 ",40.7153256,-74.0159772
575 Main St Apt 1312,"Manhattan, NY 10044","575 Main St Apt 1312 Manhattan, NY 10044 ",40.7626306,-73.9496876
65-15 38th Ave Unit 1G,"Queens, NY 11377","65-15 38th Ave Unit 1G Queens, NY 11377 ",40.7469399,-73.8986099
50 Gramercy Park N Unit 15AB,"Manhattan, NY 10010","50 Gramercy Park N Unit 15AB Manhattan, NY 10010 ",40.7387144,-73.9860447
1110 E 101st St,"Brooklyn, NY 11236","1110 E 101st St Brooklyn, NY 11236 ",40.6419699,-73.8938875
158-35 78th St,"Howard Beach, NY 11414","158-35 78th St Howard Beach, NY 11414 ",40.6580965,-73.8539329
116 Pinehurst Ave Apt K33,"New York, NY 10033","116 Pinehurst Ave Apt K33 New York, NY 10033 ",40.8521241,-73.9390216
78-14 Austin St Unit 1C,"Forest Hills, NY 11375","78-14 Austin St Unit 1C Forest Hills, NY 11375 ",40.7141299,-73.83486
1466 E 56th St,"Brooklyn, NY 11234","1466 E 56th St Brooklyn, NY 11234 ",40.6198605,-73.9214144
3184 Grand Concourse Apt 6A,"Bronx, NY 10458","3184 Grand Concourse Apt 6A Bronx, NY 10458 ",40.876331,-73.8855684
311 Bertram Ave,"Staten Island, NY 10312","311 Bertram Ave Staten Island, NY 10312 ",40.5276763,-74.17709
296 Zerega Ave,"Bronx, NY 10473","296 Zerega Ave Bronx, NY 10473 ",40.8141558,-73.8452661
539 Van Siclen Ave,"Brooklyn, NY 11207","539 Van Siclen Ave Brooklyn, NY 11207 ",40.6662946,-73.8884737
67-25 1 3 75clyde St Unit 6K,"Forest Hills, NY","67-25 1 3 75clyde St Unit 6K Forest Hills, NY ",40.718106,-73.8448469
27110 Grand Central Pkwy Apt 1X,"Floral Park, NY 11005","27110 Grand Central Pkwy Apt 1X Floral Park, NY 11005 ",40.7250575,-73.7586039
166 Perry St Unit 1C,"Manhattan, NY 10014","166 Perry St Unit 1C Manhattan, NY 10014 ",40.7344833,-74.0093789
259 W 132nd St,"New York, NY 10027","259 W 132nd St New York, NY 10027 ",40.8143034,-73.9468204
475 Armstrong Ave Apt J2,"Staten Island, NY 10308","475 Armstrong Ave Apt J2 Staten Island, NY 10308 ",40.5450435,-74.1576661
19 Winters St,"Bronx, NY 10464","19 Winters St Bronx, NY 10464 ",40.8432036,-73.7886587
23 Ferguson Ct,"Staten Island, NY 10307","23 Ferguson Ct Staten Island, NY 10307 ",40.5155351,-74.2360142
181 Androvette Ave,"Staten Island, NY 10312","181 Androvette Ave Staten Island, NY 10312 ",40.5268642,-74.1897695
2610 Avenue T,"Brooklyn, NY 11229","2610 Avenue T Brooklyn, NY 11229 ",40.6021258,-73.9456697
45-08 40 St Unit B53,"Sunnyside, NY 11104","45-08 40 St Unit B53 Sunnyside, NY 11104 ",40.7438099,-73.92425
65 Bay 38th St,"Brooklyn, NY 11214","65 Bay 38th St Brooklyn, NY 11214 ",40.5969879,-73.989101
3811 Avenue R,"Brooklyn, NY 11234","3811 Avenue R Brooklyn, NY 11234 ",40.6143312,-73.9333815
10-11 162nd St Unit 4C,"Whitestone, NY 11357","10-11 162nd St Unit 4C Whitestone, NY 11357 ",40.7924299,-73.79984
1530 71st St,"Brooklyn, NY 11228","1530 71st St Brooklyn, NY 11228 ",40.6193271,-74.0000405
2121 Shore Pkwy Apt 7F,"Brooklyn, NY 11214","2121 Shore Pkwy Apt 7F Brooklyn, NY 11214 ",40.5855015,-73.9880572
6495 Broadway Apt 1N,"Bronx, NY 10471","6495 Broadway Apt 1N Bronx, NY 10471 ",40.9058333,-73.8966837
31 4th Ct,"Staten Island, NY 10312","31 4th Ct Staten Island, NY 10312 ",40.5247694,-74.1680811
231 Norman Ave Ste 214,"Brooklyn, NY 11222","231 Norman Ave Ste 214 Brooklyn, NY 11222 ",40.7277659,-73.9445212
41-08 43rd St Unit 5F,"Sunnyside, NY 11104","41-08 43rd St Unit 5F Sunnyside, NY 11104 ",40.7468899,-73.92079
150 City Island Ave Unit A101,"Bronx, NY 10464","150 City Island Ave Unit A101 Bronx, NY 10464 ",40.843264,-73.7846868
15 Bovanizer St,"Staten Island, NY 10312","15 Bovanizer St Staten Island, NY 10312 ",40.5416705,-74.1683259
321 Bedford Ave,"Staten Island, NY 10306","321 Bedford Ave Staten Island, NY 10306 ",40.57795,-74.0999194
66 Martinot Ave,"New York, NY 14609","66 Martinot Ave New York, NY 14609 ",43.1757667,-77.5608
55 Austin Pl Apt 5B,"Staten Island, NY 10304","55 Austin Pl Apt 5B Staten Island, NY 10304 ",40.6315346,-74.0856344
1825 Madison Ave Apt 9H,"Manhattan, NY 10035","1825 Madison Ave Apt 9H Manhattan, NY 10035 ",40.801452,-73.94341
14A Lake Ave Unit A,"Brooklyn, NY 11235","14A Lake Ave Unit A Brooklyn, NY 11235 ",40.5850637,-73.9382898
9744 81st St,"Ozone Park, NY 11416","9744 81st St Ozone Park, NY 11416 ",40.6812376,-73.8584579
30 Saturn Ln,"Staten Island, NY 10314","30 Saturn Ln Staten Island, NY 10314 ",40.5830089,-74.158052
439 E 51st St Unit 6C,"Manhattan, NY 10022","439 E 51st St Unit 6C Manhattan, NY 10022 ",40.7540679,-73.964094
1844 Andrews Ave,"Bronx, NY 10453","1844 Andrews Ave Bronx, NY 10453 ",40.8523909,-73.9145802
534 E 87th St,"Manhattan, NY 10128","534 E 87th St Manhattan, NY 10128 ",40.7758919,-73.9453321
1825 Madison Ave Apt 9H,"Manhattan, NY 10035","1825 Madison Ave Apt 9H Manhattan, NY 10035 ",40.801452,-73.94341
150 City Island Ave Unit A101,"Bronx, NY 10464","150 City Island Ave Unit A101 Bronx, NY 10464 ",40.843264,-73.7846868
439 E 51st St Unit 6C,"Manhattan, NY 10022","439 E 51st St Unit 6C Manhattan, NY 10022 ",40.7540679,-73.964094
9744 81st St,"Ozone Park, NY 11416","9744 81st St Ozone Park, NY 11416 ",40.6812376,-73.8584579
30 Saturn Ln,"Staten Island, NY 10314","30 Saturn Ln Staten Island, NY 10314 ",40.5830089,-74.158052
14A Lake Ave Unit A,"Brooklyn, NY 11235","14A Lake Ave Unit A Brooklyn, NY 11235 ",40.5850637,-73.9382898
30-35 92nd St,"East Elmhurst, NY 11369","30-35 92nd St East Elmhurst, NY 11369 ",40.7606518,-73.8765895
534 E 87th St,"Manhattan, NY 10128","534 E 87th St Manhattan, NY 10128 ",40.7758919,-73.9453321
2250 Brigham St Apt 1D,"Brooklyn, NY 11229","2250 Brigham St Apt 1D Brooklyn, NY 11229 ",40.5977996,-73.9348026
531 Main St Apt 1207,"New York, NY 10044","531 Main St Apt 1207 New York, NY 10044 ",40.7295021,-73.8229583
530 E 76th St Apt 14H,"New York, NY 10021","530 E 76th St Apt 14H New York, NY 10021 ",40.7681939,-73.9500934
227 Warren St,"Brooklyn, NY 11201","227 Warren St Brooklyn, NY 11201 ",40.6870628,-73.9943045
480 Huguenot Ave,"Staten Island, NY 10312","480 Huguenot Ave Staten Island, NY 10312 ",40.5429779,-74.1975375
315 E 68th St Apt 2N,"Manhattan, NY 10065","315 E 68th St Apt 2N Manhattan, NY 10065 ",40.7659345,-73.9599486
9430 Ridge Blvd Apt 1E,"Brooklyn, NY 11209","9430 Ridge Blvd Apt 1E Brooklyn, NY 11209 ",40.6181192,-74.0365404
1100 Clove Rd Apt 5F,"Staten Island, NY 10301","1100 Clove Rd Apt 5F Staten Island, NY 10301 ",40.62108,-74.1110175
253-10 Northern Blvd,"Little Neck, NY 11362","253-10 Northern Blvd Little Neck, NY 11362 ",40.7708801,-73.7349631
2296 National Dr,"Brooklyn, NY 11234","2296 National Dr Brooklyn, NY 11234 ",40.6049446,-73.9143069
3015 Riverdale Ave Apt 3H,"New York, NY 10463","3015 Riverdale Ave Apt 3H New York, NY 10463 ",40.88086,-73.9103766
1080 Fifth Ave Unit 8A,"New York, NY 10128","1080 Fifth Ave Unit 8A New York, NY 10128 ",40.7834883,-73.9586193
625 E 234th St,"Bronx, NY 10466","625 E 234th St Bronx, NY 10466 ",40.8950907,-73.8594801
736 W 187th St Apt 303,"Manhattan, NY 10033","736 W 187th St Apt 303 Manhattan, NY 10033 ",40.8544042,-73.9354054
1725 Purdy St Apt 7C,"Bronx, NY 10462","1725 Purdy St Apt 7C Bronx, NY 10462 ",40.84057,-73.8588591
323 W 80th St,"Manhattan, NY 10024","323 W 80th St Manhattan, NY 10024 ",40.7855828,-73.9816042
10701 Princeton St,"Jamaica, NY 11435","10701 Princeton St Jamaica, NY 11435 ",40.6919424,-73.8037383
16 Tier St,"Bronx, NY 10464","16 Tier St Bronx, NY 10464 ",40.8475481,-73.7908865
4662 Grosvenor Ave,"Bronx, NY 10471","4662 Grosvenor Ave Bronx, NY 10471 ",40.8952933,-73.9054624
3176 Tierney Pl,"Bronx, NY 10465","3176 Tierney Pl Bronx, NY 10465 ",40.813524,-73.802218
40 Broad St Apt 24E,"New York, NY 10004","40 Broad St Apt 24E New York, NY 10004 ",40.7060214,-74.0117866
50-17 40th St,"Queens, NY 11104","50-17 40th St Queens, NY 11104 ",40.7374479,-73.9252988
5311 Beverley Rd,"Brooklyn, NY 11203","5311 Beverley Rd Brooklyn, NY 11203 ",40.6467464,-73.926462
323 E 235th St,"Bronx, NY 10470","323 E 235th St Bronx, NY 10470 ",40.8978696,-73.8662827
24607 87th Ave,"Bellerose, NY 11426","24607 87th Ave Bellerose, NY 11426 ",40.7303157,-73.7214015
205 Noel St,"Staten Island, NY 10312","205 Noel St Staten Island, NY 10312 ",40.5306728,-74.1679997
60 Gramercy Park N # A,"New York, NY 10010","60 Gramercy Park N # A New York, NY 10010 ",40.7385938,-73.9863188
35 Julieann Ct,"Staten Island, NY 10304","35 Julieann Ct Staten Island, NY 10304 ",40.5896492,-74.1082133
118-22 189th St,"Saint Albans, NY 11412","118-22 189th St Saint Albans, NY 11412 ",40.6897703,-73.7612713
354 Simonson Ave,"Staten Island, NY 10303","354 Simonson Ave Staten Island, NY 10303 ",40.6275966,-74.1530947
4 Fordham Hill Oval Apt 3D,"Bronx, NY 10468","4 Fordham Hill Oval Apt 3D Bronx, NY 10468 ",40.8652278,-73.9079607
705 E 93rd St,"Brooklyn, NY 11236","705 E 93rd St Brooklyn, NY 11236 ",40.6507846,-73.9135439
638 E 227th St,"Bronx, NY 10466","638 E 227th St Bronx, NY 10466 ",40.8897471,-73.8619041
535 1st St,"Brooklyn, NY 11215","535 1st St Brooklyn, NY 11215 ",40.6703847,-73.9743825
224 E 50th St,"New York, NY 10022","224 E 50th St New York, NY 10022 ",40.7552841,-73.9699168
1724 Coleman St,"Brooklyn, NY 11234","1724 Coleman St Brooklyn, NY 11234 ",40.6163859,-73.9328707
246-18 137th Ave,"Rosedale, NY 11422","246-18 137th Ave Rosedale, NY 11422 ",40.667526,-73.7304358
5645 Netherland Ave Apt 6D,"Bronx, NY 10471","5645 Netherland Ave Apt 6D Bronx, NY 10471 ",40.9060434,-73.9056951
2 W 67th St Units 6 & 7B,"Manhattan, NY 10023","2 W 67th St Units 6 & 7B Manhattan, NY 10023 ",40.7731258,-73.9787544
1563 Unionport Rd Apt 6H,"Bronx, NY 10462","1563 Unionport Rd Apt 6H Bronx, NY 10462 ",40.8377326,-73.8617976
1206 Tinton Ave,"Bronx, NY 10456","1206 Tinton Ave Bronx, NY 10456 ",40.8293286,-73.9002279
211 E 2nd St Apt 1,"Manhattan, NY 10009","211 E 2nd St Apt 1 Manhattan, NY 10009 ",40.7216778,-73.9831478
2039 E 70th St,"Brooklyn, NY 11234","2039 E 70th St Brooklyn, NY 11234 ",40.6202922,-73.9089078
1961 E 34th St,"Brooklyn, NY 11234","1961 E 34th St Brooklyn, NY 11234 ",40.6093624,-73.9331407
180-24 Grand Central Pkwy,"Jamaica, NY 11432","180-24 Grand Central Pkwy Jamaica, NY 11432 ",40.7194632,-73.7840367
3512 Oxford Ave Apt 2F,"Bronx, NY 10463","3512 Oxford Ave Apt 2F Bronx, NY 10463 ",40.8855734,-73.9086974
312 E 23rd St Apt 5D,"Manhattan, NY 10010","312 E 23rd St Apt 5D Manhattan, NY 10010 ",40.7373681,-73.9804089
166 Wiman Ave,"Staten Island, NY 10308","166 Wiman Ave Staten Island, NY 10308 ",40.5399414,-74.1463492
166-30 Willets Point Blvd,"Whitestone, NY 11357","166-30 Willets Point Blvd Whitestone, NY 11357 ",40.7854175,-73.7955209
2554 E 66th St,"Brooklyn, NY 11234","2554 E 66th St Brooklyn, NY 11234 ",40.6084225,-73.9083145
84 Horatio St Apt 1D,"Manhattan, NY 10014","84 Horatio St Apt 1D Manhattan, NY 10014 ",40.738619,-74.0074603
93 3rd St,"Brooklyn, NY 11231","93 3rd St Brooklyn, NY 11231 ",40.6775658,-73.9926305
1322 E 83rd St,"Brooklyn, NY 11236","1322 E 83rd St Brooklyn, NY 11236 ",40.6297365,-73.9034213
4310 Bedford Ave,"Brooklyn, NY 11229","4310 Bedford Ave Brooklyn, NY 11229 ",40.5966663,-73.9463378
237 Loretto St,"Staten Island, NY 10307","237 Loretto St Staten Island, NY 10307 ",40.5050328,-74.2395477
17 Shirley Ave,"Staten Island, NY 10312","17 Shirley Ave Staten Island, NY 10312 ",40.5369332,-74.1591231
131 Thompson St Apt 4C,"New York, NY 10012","131 Thompson St Apt 4C New York, NY 10012 ",40.726565,-74.0014443
1560 E 18th St Apt 4D,"Brooklyn, NY 11230","1560 E 18th St Apt 4D Brooklyn, NY 11230 ",40.6123545,-73.9562264
475 Fdr Dr Apt L806,"New York, NY 10002","475 Fdr Dr Apt L806 New York, NY 10002 ",40.7137564,-73.9777734
61-20 Grand Central Pkwy Unit A1507,"Forest Hills, NY 11375","61-20 Grand Central Pkwy Unit A1507 Forest Hills, NY 11375 ",40.7396699,-73.8455199
180 Terrace St,"Bronx, NY 10464","180 Terrace St Bronx, NY 10464 ",40.8575029,-73.7899046
135 W 52nd St Apt 27A,"New York, NY 10019","135 W 52nd St Apt 27A New York, NY 10019 ",40.7620381,-73.9808958
209 E 88th St Apt 4C,"Manhattan, NY 10128","209 E 88th St Apt 4C Manhattan, NY 10128 ",40.7801644,-73.9527366
1259 Rogers Ave,"Brooklyn, NY 11226","1259 Rogers Ave Brooklyn, NY 11226 ",40.6391126,-73.9509269
58 Schofield St,"Bronx, NY 10464","58 Schofield St Bronx, NY 10464 ",40.8444744,-73.7878677
229 E 28th St Apt Lh,"New York, NY 10016","229 E 28th St Apt Lh New York, NY 10016 ",40.7414885,-73.9793701
812 Riverside Dr Apt 41,"New York, NY 10032","812 Riverside Dr Apt 41 New York, NY 10032 ",40.8355272,-73.945174
563 E 32nd St,"East Flatbush, NY 11203","563 E 32nd St East Flatbush, NY 11203 ",40.6371363,-73.945991
25 Tudor City Pl Apt 1701,"New York, NY 10017","25 Tudor City Pl Apt 1701 New York, NY 10017 ",40.7484484,-73.9706936
218 E 82nd St Apt 3FE,"Manhattan, NY 10028","218 E 82nd St Apt 3FE Manhattan, NY 10028 ",40.775689,-73.95517
341 W 87th St Apt 1R,"New York, NY 10024","341 W 87th St Apt 1R New York, NY 10024 ",40.7904025,-73.9788204
2287 Johnson Ave Apt 12B,"Bronx, NY 10463","2287 Johnson Ave Apt 12B Bronx, NY 10463 ",40.8778582,-73.9188858
591 Van Siclen Ave,"Brooklyn, NY 11207","591 Van Siclen Ave Brooklyn, NY 11207 ",40.6650634,-73.8881211
43-10 44th St Unit 1A,"Sunnyside, NY 11104","43-10 44th St Unit 1A Sunnyside, NY 11104 ",40.7451199,-73.92019
225 65th St,"Brooklyn, NY 11220","225 65th St Brooklyn, NY 11220 ",40.64038,-74.0248548
563 E 32nd St,"East Flatbush, NY 11203","563 E 32nd St East Flatbush, NY 11203 ",40.6371363,-73.945991
25 Tudor City Pl Apt 1701,"New York, NY 10017","25 Tudor City Pl Apt 1701 New York, NY 10017 ",40.7484484,-73.9706936
2287 Johnson Ave Apt 12B,"Bronx, NY 10463","2287 Johnson Ave Apt 12B Bronx, NY 10463 ",40.8778582,-73.9188858
341 W 87th St Apt 1R,"New York, NY 10024","341 W 87th St Apt 1R New York, NY 10024 ",40.7904025,-73.9788204
43-10 44th St Unit 1A,"Sunnyside, NY 11104","43-10 44th St Unit 1A Sunnyside, NY 11104 ",40.7451199,-73.92019
225 65th St,"Brooklyn, NY 11220","225 65th St Brooklyn, NY 11220 ",40.64038,-74.0248548
591 Van Siclen Ave,"Brooklyn, NY 11207","591 Van Siclen Ave Brooklyn, NY 11207 ",40.6650634,-73.8881211
2925 Matthews Ave Apt 4C,"Bronx, NY 10467","2925 Matthews Ave Apt 4C Bronx, NY 10467 ",40.8683459,-73.8626591
209 E 31st St,"New York, NY 10016","209 E 31st St New York, NY 10016 ",40.7437966,-73.9787373
807 Riverside Dr Apt 5B,"New York, NY 10032","807 Riverside Dr Apt 5B New York, NY 10032 ",40.8351793,-73.946467
1800 Edenwald Ave,"Bronx, NY 10466","1800 Edenwald Ave Bronx, NY 10466 ",40.8918101,-73.8478472
914 President St,"Brooklyn, NY 11215","914 President St Brooklyn, NY 11215 ",40.6723462,-73.9725459
1071 Blake Ave,"Brooklyn, NY 11208","1071 Blake Ave Brooklyn, NY 11208 ",40.6704359,-73.8786945
10 Simon Ct,"Staten Island, NY 10307","10 Simon Ct Staten Island, NY 10307 ",40.5159449,-74.2360972
264 Highland Blvd,"Brooklyn, NY 11207","264 Highland Blvd Brooklyn, NY 11207 ",40.6823908,-73.8920989
948 E 230th St,"Bronx, NY 10466","948 E 230th St Bronx, NY 10466 ",40.8887566,-73.8510594
20 Edgegrove Ave,"Staten Island, NY 10312","20 Edgegrove Ave Staten Island, NY 10312 ",40.5479627,-74.1766985
177 W 83rd St Apt 4S,"New York, NY 10024","177 W 83rd St Apt 4S New York, NY 10024 ",40.7856899,-73.976047
2113 Seward Ave,"Bronx, NY 10473","2113 Seward Ave Bronx, NY 10473 ",40.8210906,-73.8505287
845 Union St # 617,"Brooklyn, NY 11215","845 Union St # 617 Brooklyn, NY 11215 ",40.6748713,-73.9758428
530 E 76th St Unit 10HJK,"Manhattan, NY 10021","530 E 76th St Unit 10HJK Manhattan, NY 10021 ",40.7684839,-73.9500551
14 Elwood Pl,"Staten Island, NY 10301","14 Elwood Pl Staten Island, NY 10301 ",40.6332992,-74.0998391
1380 Sterling Pl,"Brooklyn, NY 11213","1380 Sterling Pl Brooklyn, NY 11213 ",40.6714142,-73.9329285
12421 Flatlands Ave Apt 2E,"Brooklyn, NY 11208","12421 Flatlands Ave Apt 2E Brooklyn, NY 11208 ",40.6576556,-73.8770665
1512 74th St,"Brooklyn, NY 11228","1512 74th St Brooklyn, NY 11228 ",40.6178989,-74.002174
2381 Ocean Ave Apt 2C,"Brooklyn, NY 11229","2381 Ocean Ave Apt 2C Brooklyn, NY 11229 ",40.6034961,-73.9518075
10213 163rd Dr,"Howard Beach, NY 11414","10213 163rd Dr Howard Beach, NY 11414 ",40.652719,-73.82885
18 Laforge Ave,"Staten Island, NY 10302","18 Laforge Ave Staten Island, NY 10302 ",40.6308937,-74.1400415
12 Harris Ln,"Staten Island, NY 10309","12 Harris Ln Staten Island, NY 10309 ",40.5428618,-74.2194513
88-43 62nd Dr,"Rego Park, NY 11374","88-43 62nd Dr Rego Park, NY 11374 ",40.7263118,-73.8688201
252 South St Unit 63J,"New York, NY 10002","252 South St Unit 63J New York, NY 10002 ",40.710456,-73.991235
50 W 47th St Ste 1808,"New York, NY 10036","50 W 47th St Ste 1808 New York, NY 10036 ",40.7573938,-73.9806151
10 Bedford St,"Manhattan, NY 10014","10 Bedford St Manhattan, NY 10014 ",40.7290349,-74.003307
100 W 57th St Apt 10N,"New York, NY 10019","100 W 57th St Apt 10N New York, NY 10019 ",40.7614835,-73.97081
3636 Fieldston Rd Apt 6A,"Bronx, NY 10463","3636 Fieldston Rd Apt 6A Bronx, NY 10463 ",40.8867377,-73.9062871
16 Sutton Pl Unit 19B,"New York, NY 10022","16 Sutton Pl Unit 19B New York, NY 10022 ",40.757912,-73.960573
377 W 11th St Apt 3A,"New York, NY 10014","377 W 11th St Apt 3A New York, NY 10014 ",40.7354766,-74.009772
161 E 74th St,"Manhattan, NY 10021","161 E 74th St Manhattan, NY 10021 ",40.7716358,-73.9604313
1292 Victory Blvd,"Staten Island, NY 10301","1292 Victory Blvd Staten Island, NY 10301 ",40.6149389,-74.1064125
175 Zoe St Apt 2R,"Staten Island, NY 10305","175 Zoe St Apt 2R Staten Island, NY 10305 ",40.584895,-74.1009153
170 Steinway Ave,"Staten Island, NY 10314","170 Steinway Ave Staten Island, NY 10314 ",40.5930329,-74.1617114
170 Steinway Ave,"Staten Island, NY 10314","170 Steinway Ave Staten Island, NY 10314 ",40.5930329,-74.1617114
175 Zoe St Apt 2R,"Staten Island, NY 10305","175 Zoe St Apt 2R Staten Island, NY 10305 ",40.584895,-74.1009153
20 Bethune St Apt 3A,"New York, NY 10014","20 Bethune St Apt 3A New York, NY 10014 ",40.7370971,-74.0068584
601 Washington St Ph E,"Manhattan, NY 10014","601 Washington St Ph E Manhattan, NY 10014 ",40.730539,-74.008601
1847 Troy Ave,"Brooklyn, NY 11234","1847 Troy Ave Brooklyn, NY 11234 ",40.6271039,-73.933308
33 Loring Ave,"Staten Island, NY 10312","33 Loring Ave Staten Island, NY 10312 ",40.5547806,-74.1793752
30 Front St # B,"Brooklyn, NY 11201","30 Front St # B Brooklyn, NY 11201 ",40.7022,-73.990838
531 Main St Apt 217,"New York, NY 10044","531 Main St Apt 217 New York, NY 10044 ",40.7295021,-73.8229583
38-40 E 76th St,"New York, NY 10021","38-40 E 76th St New York, NY 10021 ",40.7739266,-73.9631731
518 E 11th St Apt 1B,"Manhattan, NY 10009","518 E 11th St Apt 1B Manhattan, NY 10009 ",40.7281502,-73.9814346
2221 E 69th St,"Brooklyn, NY 11234","2221 E 69th St Brooklyn, NY 11234 ",40.6169202,-73.9063472
17 Winfield St,"Staten Island, NY 10305","17 Winfield St Staten Island, NY 10305 ",40.590517,-74.0792528
3032 Brighton 7th St,"Brooklyn, NY 11235","3032 Brighton 7th St Brooklyn, NY 11235 ",40.5789775,-73.9612864
753 E 5th St Apt 4C,"New York, NY 10009","753 E 5th St Apt 4C New York, NY 10009 ",40.7224935,-73.9783891
8520 80th St,"Woodhaven, NY 11421","8520 80th St Woodhaven, NY 11421 ",40.695096,-73.8636723
80 Roebling St Apt 1,"Brooklyn, NY 11211","80 Roebling St Apt 1 Brooklyn, NY 11211 ",40.7167496,-73.9550638
50 Bradley Ct Unit A,"Staten Island, NY 10314","50 Bradley Ct Unit A Staten Island, NY 10314 ",40.6008197,-74.1324861
239 Lake St,"Brooklyn, NY 11223","239 Lake St Brooklyn, NY 11223 ",40.5982333,-73.9736663
9255 Shore Rd Apt 1D,"Brooklyn, NY 11209","9255 Shore Rd Apt 1D Brooklyn, NY 11209 ",40.6194283,-74.0399299
3316 Mickle Ave,"Bronx, NY 10469","3316 Mickle Ave Bronx, NY 10469 ",40.8756028,-73.8443316
1922 E 16th St,"Brooklyn, NY 11229","1922 E 16th St Brooklyn, NY 11229 ",40.602997,-73.956422
Beech Cir,"College Point, NY 11356","Beech Cir College Point, NY 11356 ",40.7865892,-73.8465226
1025 Fifth /N Ave Unit 11C,"Manhattan, NY 10028","1025 Fifth /N Ave Unit 11C Manhattan, NY 10028 ",40.7797617,-73.9613535
94-10 64th Rd Unit C6,"Rego Park, NY 11374","94-10 64th Rd Unit C6 Rego Park, NY 11374 ",40.727429,-73.8611371
58 W 105th St Apt 5A,"Manhattan, NY 10025","58 W 105th St Apt 5A Manhattan, NY 10025 ",40.7980925,-73.9627629
485 Armstrong Ave Apt E1,"Staten Island, NY 10308","485 Armstrong Ave Apt E1 Staten Island, NY 10308 ",40.5453296,-74.1579446
17506 Devonshire Blvd Unit 4C,"Jamaica, NY 11432","17506 Devonshire Blvd Unit 4C Jamaica, NY 11432 ",40.7154518,-73.7919103
200 E 69th St Apt 17C,"Manhattan, NY 10021","200 E 69th St Apt 17C Manhattan, NY 10021 ",40.7673279,-73.9617828
2090 Madison Ave Apt 1D,"New York, NY 10037","2090 Madison Ave Apt 1D New York, NY 10037 ",40.8099353,-73.9377818
9 Penn Ave,"Staten Island, NY 10306","9 Penn Ave Staten Island, NY 10306 ",40.5673688,-74.1232734
305 Aspen Knolls Way,"Staten Island, NY 10312","305 Aspen Knolls Way Staten Island, NY 10312 ",40.5626236,-74.1835031
3121 Middletown Rd Apt 2K,"Bronx, NY 10461","3121 Middletown Rd Apt 2K Bronx, NY 10461 ",40.8452787,-73.8267207
254-6 52 Rd,"Little Neck, NY 11362","254-6 52 Rd Little Neck, NY 11362 ",40.7677257,-73.7284269
135-40 96th St,"Ozone Park, NY 11417","135-40 96th St Ozone Park, NY 11417 ",40.6728627,-73.8407002
469 W 144th St,"New York, NY 10031","469 W 144th St New York, NY 10031 ",40.824548,-73.9475322
1806 Undercliff Ave,"Bronx, NY 10453","1806 Undercliff Ave Bronx, NY 10453 ",40.8525056,-73.9188964
1014 Banner Ave Unit 3B,"Brooklyn, NY 11235","1014 Banner Ave Unit 3B Brooklyn, NY 11235 ",40.5834601,-73.9594656
20 Memo St,"Staten Island, NY 10309","20 Memo St Staten Island, NY 10309 ",40.5159756,-74.1976465
925 Park Avenue Ave Unit 7D,"Manhattan, NY 10028","925 Park Avenue Ave Unit 7D Manhattan, NY 10028 ",40.7763705,-73.9596804
49 El Camino Loop,"Staten Island, NY 10309","49 El Camino Loop Staten Island, NY 10309 ",40.537719,-74.2132546
256 W 75th St,"Manhattan, NY 10023","256 W 75th St Manhattan, NY 10023 ",40.7814489,-73.9827848
10 E 64th St,"New York, NY 10065","10 E 64th St New York, NY 10065 ",40.7669488,-73.9701331
10 E 64th St,"New York, NY 10065","10 E 64th St New York, NY 10065 ",40.7669488,-73.9701331
31-16 48th St,"Astoria, NY 11103","31-16 48th St Astoria, NY 11103 ",40.7579776,-73.9112909
40 Donna Ct Apt 3,"Staten Island, NY 10314","40 Donna Ct Apt 3 Staten Island, NY 10314 ",40.5803264,-74.1622834
2 Bay Club Dr Apt 1Z3,"Bayside, NY 11360","2 Bay Club Dr Apt 1Z3 Bayside, NY 11360 ",40.7780978,-73.7818572
27-16 McIntosh Family St Unit Multi,"Queens, NY 11369","27-16 McIntosh Family St Unit Multi Queens, NY 11369 ",40.7659246,-73.8683697
525 Castleton Ave Apt 1C,"Staten Island, NY 10301","525 Castleton Ave Apt 1C Staten Island, NY 10301 ",40.6344338,-74.1000104
2805 Ocean Pkwy Apt 2B,"Brooklyn, NY 11235","2805 Ocean Pkwy Apt 2B Brooklyn, NY 11235 ",40.5812957,-73.9667628
37 Warren St Unit Phcd,"Manhattan, NY 10007","37 Warren St Unit Phcd Manhattan, NY 10007 ",40.7143354,-74.0087443
125 Tioga St,"Staten Island, NY 10301","125 Tioga St Staten Island, NY 10301 ",40.6111893,-74.103286
145-53 7th Ave,"Whitestone, NY 11357","145-53 7th Ave Whitestone, NY 11357 ",40.7934476,-73.8230321
170 W 85th St # 2NE,"New York, NY 10024","170 W 85th St # 2NE New York, NY 10024 ",40.7867652,-73.9753353
559 E 32nd St,"Brooklyn, NY 11210","559 E 32nd St Brooklyn, NY 11210 ",40.6373094,-73.9459709
1500 Ocean Pkwy Apt 1K,"Brooklyn, NY 11230","1500 Ocean Pkwy Apt 1K Brooklyn, NY 11230 ",40.6121256,-73.9687931
3245 Perry Ave Apt 5F,"Bronx, NY 10467","3245 Perry Ave Apt 5F Bronx, NY 10467 ",40.8757313,-73.8765153
131 Mercer St Apt 2B,"Manhattan, NY 10012","131 Mercer St Apt 2B Manhattan, NY 10012 ",40.7243698,-73.9990309
103-25 68th Ave Unit 2L,"Forest Hills, NY 11375","103-25 68th Ave Unit 2L Forest Hills, NY 11375 ",40.7256199,-73.85102
109-33 118th St,"South Ozone Park, NY 11420","109-33 118th St South Ozone Park, NY 11420 ",40.681028,-73.8223437
304 Bay 17th St Apt 3A,"Brooklyn, NY 11214","304 Bay 17th St Apt 3A Brooklyn, NY 11214 ",40.6016275,-74.0099195
5425 Valles Ave Apt 4L,"Bronx, NY 10471","5425 Valles Ave Apt 4L Bronx, NY 10471 ",40.9016784,-73.8999228
300 Central Park W Apt 21G,"Manhattan, NY 10024","300 Central Park W Apt 21G Manhattan, NY 10024 ",40.7879606,-73.9675722
226 E 2nd St Apt 5E,"Manhattan, NY 10009","226 E 2nd St Apt 5E Manhattan, NY 10009 ",40.7217583,-73.982429
65 E 96th St Apt 16B,"New York, NY 10128","65 E 96th St Apt 16B New York, NY 10128 ",40.7870797,-73.9530758
2565 Flatbush Ave,"Brooklyn, NY 11234","2565 Flatbush Ave Brooklyn, NY 11234 ",40.6088939,-73.9188975
215 E 24th St Apt 615,"New York, NY 10010","215 E 24th St Apt 615 New York, NY 10010 ",40.7394961,-73.9822736
130 Barrow St Apt 404,"New York, NY 10014","130 Barrow St Apt 404 New York, NY 10014 ",40.7321788,-74.0093344
5-9 48th Ave Unit 4J,"Queens, NY 11109","5-9 48th Ave Unit 4J Queens, NY 11109 ",40.744643,-73.9553212
215 Atlantic Ave,"Staten Island, NY 10305","215 Atlantic Ave Staten Island, NY 10305 ",40.5916164,-74.0911745
57 Bentley St,"Staten Island, NY 10307","57 Bentley St Staten Island, NY 10307 ",40.5110458,-74.251473
11 Jules Dr Unit 83,"Staten Island, NY 10314","11 Jules Dr Unit 83 Staten Island, NY 10314 ",40.619569,-74.155099
49-08 111 St Unit 4B,"Corona, NY 11368","49-08 111 St Unit 4B Corona, NY 11368 ",40.745819,-73.853167
145 99th St,"Brooklyn, NY 11209","145 99th St Brooklyn, NY 11209 ",40.614469,-74.0358052
6535 Broadway Apt 2A,"Bronx, NY 10471","6535 Broadway Apt 2A Bronx, NY 10471 ",40.9069179,-73.8966912
57 Summit St,"Brooklyn, NY 11231","57 Summit St Brooklyn, NY 11231 ",40.6827344,-74.0046063
317 W 95th St Apt Hg,"New York, NY 10025","317 W 95th St Apt Hg New York, NY 10025 ",40.7952907,-73.9746783
383 Maguire Ave,"Staten Island, NY 10309","383 Maguire Ave Staten Island, NY 10309 ",40.535686,-74.2115029
450 Cyrus Pl,"Bronx, NY 10458","450 Cyrus Pl Bronx, NY 10458 ",40.8585053,-73.891907
184 Greenleaf Ave,"Staten Island, NY 10310","184 Greenleaf Ave Staten Island, NY 10310 ",40.6258498,-74.1267063
75 Columbia Hts,"Brooklyn, NY 11201","75 Columbia Hts Brooklyn, NY 11201 ",40.7004278,-73.9951168
435 E 57th St Apt 2C,"Manhattan, NY 10022","435 E 57th St Apt 2C Manhattan, NY 10022 ",40.7581185,-73.9620574
28-35 48 St,"Astoria, NY 11103","28-35 48 St Astoria, NY 11103 ",40.7614864,-73.907862
2525 Harway Ave,"Brooklyn, NY 11214","2525 Harway Ave Brooklyn, NY 11214 ",40.592407,-73.991568
185 Utter Ave,"Staten Island, NY 10314","185 Utter Ave Staten Island, NY 10314 ",40.6184987,-74.1204929
5000 Iselin Ave,"Bronx, NY 10471","5000 Iselin Ave Bronx, NY 10471 ",40.8982203,-73.9048109
2113 Kings Hwy Apt 2B,"Brooklyn, NY 11229","2113 Kings Hwy Apt 2B Brooklyn, NY 11229 ",40.6114547,-73.9520879
87-08 31 Ave,"East Elmhurst, NY 11369","87-08 31 Ave East Elmhurst, NY 11369 ",40.7595766,-73.8809798
76-45 167 St,"Fresh Meadows, NY 11366","76-45 167 St Fresh Meadows, NY 11366 ",40.7248894,-73.8013564
539 E 18th St,"Brooklyn, NY 11226","539 E 18th St Brooklyn, NY 11226 ",40.6375867,-73.9605764
86 Horatio St Apt 1B,"New York, NY 10014","86 Horatio St Apt 1B New York, NY 10014 ",40.7386197,-74.0075864
444 E 86th St Apt 27B,"New York, NY 10028","444 E 86th St Apt 27B New York, NY 10028 ",40.7763135,-73.9484311
60 Park Ter W Apt A83,"New York, NY 10034","60 Park Ter W Apt A83 New York, NY 10034 ",40.870976,-73.917376
25-74 34th St Unit 2D,"Astoria, NY 11103","25-74 34th St Unit 2D Astoria, NY 11103 ",40.7679649,-73.917536
11 Bank St,"New York, NY 10014","11 Bank St New York, NY 10014 ",40.7372279,-74.0023157
1840 72nd St,"Brooklyn, NY 11204","1840 72nd St Brooklyn, NY 11204 ",40.6143537,-73.9933216
55 Vail Ave,"Staten Island, NY 10309","55 Vail Ave Staten Island, NY 10309 ",40.5170643,-74.210119
271 Bruckner Ave Unit A,"Staten Island, NY 10303","271 Bruckner Ave Unit A Staten Island, NY 10303 ",40.6248645,-74.1593527
10314 Avenue M,"Brooklyn, NY 11236","10314 Avenue M Brooklyn, NY 11236 ",40.6400754,-73.8882671
35 Hudson Yards # 7803,"New York, NY 10001","35 Hudson Yards # 7803 New York, NY 10001 ",40.7546241,-74.0023133
1251 E 104th St,"Brooklyn, NY 11236","1251 E 104th St Brooklyn, NY 11236 ",40.6413301,-73.8887012
735 Chauncey St,"Brooklyn, NY 11207","735 Chauncey St Brooklyn, NY 11207 ",40.6855608,-73.9075184
