Address line 1,Address line 2,Full Address,Latitude,Longitude,Number_of_Parks_Nearby,Distance_to_Nearest_Parks_miles,Number_of_Malls_Nearby,Distance_to_Nearest_Malls_miles,Number_of_Metros_Nearby,Distance_to_Nearest_Metros_miles,Number_of_Clubs_Nearby,Distance_to_Nearest_Clubs_miles,Number_of_Restaurants_Nearby,Distance_to_Nearest_Restaurants_miles,Number_of_Schools_Nearby,Distance_to_Nearest_Schools_miles,Number_of_Colleges_Nearby,Distance_to_Nearest_Colleges_miles,Number_of_Universities_Nearby,Distance_to_Nearest_Universities_miles,Number_of_Buses_Nearby,Distance_to_Nearest_Buses_miles,Number_of_Trains_Nearby,Distance_to_Nearest_Trains_miles,Number_of_Airports_Nearby,Distance_to_Nearest_Airports_miles,Number_of_Museums_Nearby,Distance_to_Nearest_Museums_miles,Number_of_Libraries_Nearby,Distance_to_Nearest_Libraries_miles,Number_of_Grocery_stores_Nearby,Distance_to_Nearest_Grocery_stores_miles,borough
217 W 57th St Unit 127/128,"Manhattan, NY 10019","217 W 57th St Unit 127/128 Manhattan, NY 10019 ",40.766474,-73.981266,16,0.5165397709451309,3,0.1563297925694627,110,0.1301213682622953,30,0.1568532540351718,2786,0.0469541045618066,165,0.2275378491364067,12,0.1921393055186615,21,0.2678744145452829,1524,0.0328813315587589,118,0.1301213682622953,1,2.205336807206685,34,0.466477202726015,26,0.2284427365027695,194,0.1518318723349472,
764 Saint Nicholas /C2 Ave Unit C1,"New York, NY 10031","764 Saint Nicholas /C2 Ave Unit C1 New York, NY 10031 ",40.8261303,-73.9430056,37,0.0574308087656587,0,inf,72,0.1575106639131792,5,1.608253827941662,572,0.0240388203961368,220,0.1669333786645634,4,0.5230069076413131,1,0.7022470541118028,1047,0.0450492010889983,78,0.1575106639131792,0,inf,14,0.3134843013594822,9,0.3725468587600871,101,0.2352852561025057,
34 W 89th St,"Manhattan, NY 10024","34 W 89th St Manhattan, NY 10024 ",40.7875866,-73.96924,19,0.1489547272919808,2,1.5034806618809595,88,0.1536205760215855,7,1.483466604356212,1933,0.1044469115186588,192,0.0632261571129386,9,1.436297856249862,9,1.195191680791719,1351,0.0779170065227677,93,0.1536205760215855,0,inf,17,0.4583004541933788,22,0.580739950731136,154,0.1296642388517955,
177 Benedict Rd,"Staten Island, NY 10304","177 Benedict Rd Staten Island, NY 10304 ",40.5950084,-74.1064343,1,1.5154123071213244,0,inf,7,0.8040441786542666,1,2.507275650712056,173,0.5491656552192854,16,0.8755444685438601,0,inf,1,1.990789363429372,545,0.3280868775935014,7,0.8040441786542666,0,inf,4,2.1162466639704904,1,1.6162439459451725,22,1.0055621706349438,
115-30 116th St,"South Ozone Park, NY 11420","115-30 116th St South Ozone Park, NY 11420 ",40.6757464,-73.8224126,14,0.9538248208039238,1,1.8227926323693056,30,0.7268073857419223,7,0.7690885419530468,252,0.1880194338544605,32,0.2636642533516634,1,2.7379625897604662,0,inf,1134,0.1415322547761024,42,0.7268073857419223,0,inf,0,inf,1,1.6389929400116408,52,0.2169646437914073,
103 E 84th St Unit Ph,"New York, NY 10028","103 E 84th St Unit Ph New York, NY 10028 ",40.7788226,-73.9575242,18,0.9577955047109302,2,1.5096793134859998,100,0.1144239562449795,20,1.3190675635717106,2211,0.0588157765425484,188,0.0164883557423557,10,0.8762278190002182,10,0.980514518119854,1491,0.0754347796311569,106,0.1144239562449795,0,inf,22,0.1375785032613974,22,0.8033296487446325,185,0.1821741140057661,
353 W 22nd St,"Manhattan, NY 10011","353 W 22nd St Manhattan, NY 10011 ",40.7456757,-74.0009801,20,0.441659413655127,3,0.3237424560887057,125,0.1337484763229782,37,0.2666363376661688,3176,0.030591604079406,153,0.1014947549652657,14,0.4932364158371086,23,0.4358902378016092,1554,0.0390628104250733,141,0.1337484763229782,1,1.6428631399753946,47,0.3426659997271982,28,0.5375772908326613,184,0.1001776089889872,
650 51st St,"Brooklyn, NY 11220","650 51st St Brooklyn, NY 11220 ",40.6422965,-74.0075025,3,0.7003463037974015,0,inf,57,0.3929996507841219,1,2.552883086397518,643,0.0760939872007803,93,0.2444852845964223,0,inf,0,inf,1029,0.0876670343608846,57,0.3929996507841219,0,inf,3,1.4882597345151825,3,0.4017842223917439,92,0.1612445090774725,
303 E 57th St Apt 39A,"Manhattan, NY 10022","303 E 57th St Apt 39A Manhattan, NY 10022 ",40.7593679,-73.9650504,15,0.5487981752629357,3,1.121941092080063,122,0.265830200564017,43,0.4058084828855733,3161,0.0195874458112356,179,0.0751355169301095,12,0.5389751658193471,21,0.6488326044634274,1604,0.0237839586417594,128,0.265830200564017,1,1.720903845623753,36,0.387498803828859,24,0.2789119627175032,220,0.0517781696659073,
973 Fifth Ave,"New York, NY 10075","973 Fifth Ave New York, NY 10075 ",40.7766811,-73.9636668,13,0.9415067339216552,2,1.156221020480957,99,0.2896269847724807,21,1.0362018027237052,2339,0.0733601225014474,188,0.1457682402641917,11,0.6584433305062404,11,0.942581654618782,1481,0.0171887875932214,106,0.2896269847724807,1,2.90619990219272,27,0.2218439930133696,23,0.5590533352494862,186,0.309004954442183,
5 Davis Ct,"Staten Island, NY 10310","5 Davis Ct Staten Island, NY 10310 ",40.6416968,-74.1107325,1,1.841989620136151,0,inf,4,1.9099564442829744,1,1.463086412253128,119,0.298879298135755,24,0.4529372855743255,1,1.7596939600182198,1,1.7397421274124374,515,0.1858301207586376,8,1.297683615198435,0,inf,8,0.254535115737148,0,inf,16,0.896576305248257,
86 Sunset Ave,"Staten Island, NY 10314","86 Sunset Ave Staten Island, NY 10314 ",40.600505,-74.1339418,4,1.8638941184455349,0,inf,5,1.956549298347805,1,1.806105546971392,163,0.8450306012354771,17,0.3275916470386029,0,inf,1,2.673796688067129,514,0.0480217310536097,5,1.956549298347805,0,inf,4,1.0779298878217929,1,1.983018076577572,24,0.8427546470194621,
19 Gadsen Pl Apt 2G,"Staten Island, NY 10314","19 Gadsen Pl Apt 2G Staten Island, NY 10314 ",40.59307,-74.1596718,5,0.6670661603592347,0,inf,6,2.609407752037452,1,2.781071233187069,131,0.2692726104370028,14,0.9891386349063463,0,inf,0,inf,345,0.161680130712987,6,2.609407752037452,0,inf,1,2.0272929550961583,1,2.4836470799411794,16,0.3871264635124374,
308 E 81st St,"New York, NY 10028","308 E 81st St New York, NY 10028 ",40.7742642,-73.9536737,19,1.0812216631045486,2,1.5820780946818949,104,0.2691122006379529,25,1.215550197827403,2344,0.0229366343352649,187,0.0739721704582714,10,0.7345591842731525,11,0.6595565049179314,1559,0.05978572831227,110,0.2691122006379529,1,2.8811671901042906,24,0.4968083949639615,21,0.7072181231191527,195,0.0999796690152094,
815 Swinton Ave,"Bronx, NY 10465","815 Swinton Ave Bronx, NY 10465 ",40.8264828,-73.8275131,16,0.0589351122787039,0,inf,17,1.230878691562784,2,2.544618558105835,96,0.5424330388076347,59,0.0911369261109301,0,inf,0,inf,529,0.21795527005719,17,1.230878691562784,1,1.4652691599442509,1,2.4120257845694595,6,1.256860602862386,22,0.9430491350339596,
653 Barlow Ave,"Staten Island, NY 10312","653 Barlow Ave Staten Island, NY 10312 ",40.5570352,-74.1703907,4,2.4023405979755106,0,inf,8,0.9154814576349224,0,inf,106,0.1253766772477096,13,1.6668456667391598,0,inf,0,inf,278,0.073754993652849,8,0.9154814576349224,0,inf,1,2.667892065399357,1,2.9088035552402816,10,0.2000957153398921,
3520 Newkirk Ave,"Brooklyn, NY 11203","3520 Newkirk Ave Brooklyn, NY 11203 ",40.6401806,-73.9429395,19,1.1071980798419352,0,inf,63,0.2869968018770323,4,0.8300882604219527,418,0.36642619524519,136,0.6869099096576552,2,2.5082633171616537,0,inf,1614,0.0735033390051766,64,0.2869968018770323,0,inf,4,0.997122874181085,3,1.4992659358131022,93,0.7292918888019922,
136 E 79th St # 14A,"New York, NY 10075","136 E 79th St # 14A New York, NY 10075 ",40.7748738,-73.9593405,15,1.1414327902108063,2,1.3106316979996302,102,0.0882908864317129,22,1.0412623565361925,2380,0.0267060160031094,184,0.0494131987235558,11,0.5885425393743263,11,0.7360380852381063,1531,0.020560287263369,108,0.0882908864317129,1,2.831670899486362,25,0.2622817232449604,22,0.5210751090879835,194,0.1343081651536737,
182-61 Avon Rd,"Jamaica, NY 11432","182-61 Avon Rd Jamaica, NY 11432 ",40.7215637,-73.7822716,22,0.602816444982642,0,inf,11,0.6206679868514062,2,2.1534403512325957,338,0.453385945193096,34,0.2768886812082133,1,2.613073947666777,0,inf,1420,0.2596215929646112,22,0.6206679868514062,0,inf,1,2.0851008623842104,3,1.6367109919663116,79,0.4798688994883363,
431 Mountainview Ave,"Staten Island, NY 10314","431 Mountainview Ave Staten Island, NY 10314 ",40.6007056,-74.124688,4,1.7456627822937172,0,inf,4,1.6290032683959992,1,1.8045408841704755,171,0.5601409530623561,18,0.4311445894242761,0,inf,1,2.270335374291601,577,0.095426633393041,4,1.6290032683959992,0,inf,4,1.2076690093796008,1,1.8687198780714824,25,0.5467706368693369,
361K Skyline Dr Unit K,"Staten Island, NY 10304","361K Skyline Dr Unit K Staten Island, NY 10304 ",40.6123992,-74.0804239,1,2.799427428727615,0,inf,8,0.7840344930783676,1,2.7913122917452355,186,0.3631607618301056,14,0.2416736727879304,1,2.140156065114521,1,0.8372190840792874,598,0.2455244124788392,8,0.7840344930783676,0,inf,8,1.1859656488331942,0,inf,22,0.4773428263341009,
8536 65th Dr,"Rego Park, NY 11374","8536 65th Dr Rego Park, NY 11374 ",40.7194242,-73.8627219,12,1.8065354240850493,1,2.9923597573957688,48,0.7114818875454942,13,1.1437960383558097,817,0.3159962441516736,71,0.1738493421377059,1,1.681940125514223,0,inf,1475,0.1003898691385825,52,0.7114818875454942,0,inf,2,2.674893982155744,3,1.05811714829387,132,0.3371806771404016,
170-15 84th Dr,"Jamaica, NY 11432","170-15 84th Dr Jamaica, NY 11432 ",40.7152952,-73.7939094,20,0.4579122309176345,0,inf,16,0.3333355820506367,7,1.4055847252156906,407,0.291478346515135,38,0.3252677034533062,1,1.9610256776232209,0,inf,1533,0.0730557986783579,23,0.3333355820506367,0,inf,1,1.8898665356845263,2,1.4545101453893754,89,0.285403237010514,
48-10 45th St Unit 3B,"Woodside, NY 11377","48-10 45th St Unit 3B Woodside, NY 11377 ",40.7394199,-73.92039,5,2.1698669603491325,0,inf,70,0.2788080498057026,36,0.5681574015220997,1745,0.0116641008086424,105,0.1936624105298773,3,1.7206858878427311,2,2.517373621656987,1632,0.0289640132139164,73,0.2788080498057026,1,2.771766450327402,8,1.1729786935385584,9,0.7816944353966949,197,0.1456728881363601,
9 Inwood Rd,"Staten Island, NY 10301","9 Inwood Rd Staten Island, NY 10301 ",40.6125626,-74.0934849,1,2.9048515998154567,0,inf,7,1.3105171054196012,1,2.15606726135498,162,0.3269125261198753,17,0.6268682004814606,1,2.2864246255107714,1,0.6218459274060436,586,0.2505793567712888,7,1.3105171054196012,0,inf,8,1.1399246971902923,1,3.0042562262029104,19,0.3151302144352747,
563 Park Ave # 5 & 6W,"New York, NY 10065","563 Park Ave # 5 & 6W New York, NY 10065 ",40.7647849,-73.9679849,15,0.9109748130517829,3,0.8178297193281142,115,0.098796003754151,40,0.2201020329019315,2954,0.0685382947303649,177,0.0633096194448186,12,0.2615462908492066,21,0.6858629544242724,1583,0.079948063757342,122,0.098796003754151,1,2.0608620697901427,31,0.0607934888405737,23,0.2019801677896075,207,0.1712386693265315,
536 Georgia Ave,"Brooklyn, NY 11207","536 Georgia Ave Brooklyn, NY 11207 ",40.6633104,-73.8958753,27,0.1763232460071894,1,2.1360361871761206,60,0.1092550559902724,9,2.15412020066007,364,0.6648225553971413,91,0.35783153956012,1,2.8434169071641118,0,inf,1447,0.1170636857913413,62,0.1092550559902724,0,inf,1,2.997590054885928,3,0.539627500511225,64,0.3209714642611328,
34-42 87th St,"Jackson Heights, NY 11372","34-42 87th St Jackson Heights, NY 11372 ",40.7529635,-73.8804156,4,1.5648629570149724,2,2.397635117230322,34,0.3684056350833465,14,0.4878591432167239,964,0.1998366217494488,36,0.3245440692845941,0,inf,0,inf,1254,0.0562921353076996,38,0.3684056350833465,1,2.2207087731105632,1,2.298191839503203,4,2.7737301697315737,135,0.203164621594409,
160-19 88th St,"Howard Beach, NY 11414","160-19 88th St Howard Beach, NY 11414 ",40.6567401,-73.8437901,14,1.4655875931163158,1,1.2170967369703962,30,0.7545385295128428,4,2.351776775128775,125,0.2808954973153008,24,0.5355608335500789,0,inf,0,inf,778,0.2547748037505181,35,0.7545385295128428,0,inf,0,inf,2,2.222962435926939,24,0.7855236485827594,
1958 Colden Ave,"Bronx, NY 10462","1958 Colden Ave Bronx, NY 10462 ",40.8516195,-73.8587569,40,0.3508425136413938,0,inf,49,0.2160206070343506,3,0.5351593189970855,153,0.2701821789388469,139,0.1106619881557584,0,inf,0,inf,1034,0.2796433805425911,55,0.2160206070343506,1,2.2645404268346714,1,3.111093229888014,4,0.2679468353209212,55,0.2878301360064154,
11125 147th St,"Jamaica, NY 11435","11125 147th St Jamaica, NY 11435 ",40.6872252,-73.7969082,15,0.7090227501986074,0,inf,22,1.056122044583292,8,0.9221291922905964,281,0.109107198534731,39,0.5869262808206444,1,2.6243308964153043,0,inf,1324,0.1049953683610762,37,1.012705031077035,0,inf,0,inf,2,0.3999545974467239,66,0.1080359915052986,
6121 160th St,"Fresh Meadows, NY 11365","6121 160th St Fresh Meadows, NY 11365 ",40.7378992,-73.8082822,17,0.2984971098090227,2,1.7338902877725202,18,1.8812668586483223,3,2.071741217702668,537,0.3277115594392505,33,0.6202954666499164,1,1.9959129066031127,0,inf,1377,0.0202102684781286,29,1.678296320527183,0,inf,1,0.4641237373382899,3,0.3839326127696746,101,0.0868854642913916,
7564 184th St,"Fresh Meadows, NY 11366","7564 184th St Fresh Meadows, NY 11366 ",40.7285703,-73.7853152,18,1.1081649517138383,1,3.042971763901836,11,1.1016255526147354,1,2.3692376136604576,366,0.0816113636393273,35,0.6644048489920951,1,2.590914293694139,0,inf,1368,0.0574216146275824,21,1.1016255526147354,0,inf,1,1.742894211514735,2,1.3210381016285768,82,0.1256665555686387,
280 Crown Ave,"Staten Island, NY 10312","280 Crown Ave Staten Island, NY 10312 ",40.5475788,-74.1882589,1,3.030398781287269,0,inf,8,0.7303216225945277,0,inf,110,0.446612963893988,12,1.889754494339756,0,inf,0,inf,240,0.5162378539213582,8,0.7303216225945277,0,inf,1,1.5547900021442729,0,inf,10,0.4703493158027958,
69-23 Alderton St,"Rego Park, NY 11374","69-23 Alderton St Rego Park, NY 11374 ",40.7130597,-73.8580673,14,1.422072949050249,1,2.874463793930678,52,0.927646944633164,11,0.7199143901559507,742,0.1876388936112036,73,0.3138842359480154,1,1.4131775224321166,0,inf,1518,0.0912574327459813,57,0.8273320967625347,0,inf,1,2.694404242401418,3,1.1789528767351816,120,0.1317150848331941,
120 E 80th St Unit Parlor,"New York, NY 10075","120 E 80th St Unit Parlor New York, NY 10075 ",40.7758127,-73.9592568,18,1.085658365013444,2,1.3381443669747728,100,0.1521861522720281,23,1.096184125780869,2333,0.0384079720916633,183,0.1107200121220697,10,0.6495336227672347,11,0.7965072842235503,1515,0.0435642271098006,106,0.1521861522720281,1,2.8955064705871587,25,0.2705709010002649,22,0.5779917480843826,193,0.1794292345383828,
27110 Grand Central Pkwy Apt 30V,"Floral Park, NY 11005","27110 Grand Central Pkwy Apt 30V Floral Park, NY 11005 ",40.7250575,-73.7586039,16,1.233992231849906,0,inf,6,1.576595954810239,2,2.709113686491743,258,0.2579004815576456,22,0.8773700768190704,0,inf,0,inf,1180,0.1654673388610043,17,1.1110095346631792,0,inf,0,inf,2,2.314540319026608,64,0.2793204466174336,
360 W 123rd St,"Manhattan, NY 10027","360 W 123rd St Manhattan, NY 10027 ",40.8096896,-73.9545352,26,0.0702208120812566,0,inf,65,0.1285844242716799,3,0.9464259663412388,936,0.044239862893278,222,0.1160519359551874,5,0.2899601602251315,3,0.5910717483913184,1091,0.0718732609305064,68,0.1285844242716799,0,inf,20,0.3732343560470391,18,0.5975574639660846,113,0.1330961149180525,
519 Eltingville Blvd,"Staten Island, NY 10312","519 Eltingville Blvd Staten Island, NY 10312 ",40.5581078,-74.1670944,4,2.256403209791946,0,inf,8,0.949744021336718,0,inf,123,0.1043618678979155,8,1.4826131738371335,0,inf,0,inf,293,0.1120398598819142,8,0.949744021336718,0,inf,1,2.856441058213224,1,2.7202076658300984,11,0.1369575615657615,
169 Brighton St,"Staten Island, NY 10307","169 Brighton St Staten Island, NY 10307 ",40.506257,-74.2438371,6,0.9648478368192628,0,inf,5,0.6207470250279006,0,inf,48,0.26025748154989,16,1.183498001364505,0,inf,0,inf,154,0.1180076548139065,7,0.6207470250279006,0,inf,1,2.794887950538784,0,inf,6,0.7379535258334224,
158-24 81st St,"Howard Beach, NY 11414","158-24 81st St Howard Beach, NY 11414 ",40.6584792,-73.8516652,20,1.163779514257662,1,0.9301459211213065,39,1.1320633838188523,4,2.4748923936409417,120,0.5552370284619179,25,0.8990542606731682,0,inf,0,inf,850,0.3527727288603396,43,1.1320633838188523,0,inf,0,inf,2,1.8323095429019616,26,0.5676961534047215,
94-30 59 Ave Unit 4H,"Elmhurst, NY 11373","94-30 59 Ave Unit 4H Elmhurst, NY 11373 ",40.7348199,-73.86684,13,1.9622033875649905,2,2.2791863479704166,35,0.1846398356378816,8,1.4396424439716689,901,0.1097384156587804,46,0.6172136709742071,1,2.3212708192603086,0,inf,1374,0.0098448361416392,40,0.1846398356378816,0,inf,1,2.623694572964581,3,1.690719071782279,135,0.2490763879632515,
,,  ,,,0,inf,0,inf,0,inf,0,inf,0,inf,0,inf,0,inf,0,inf,0,inf,0,inf,0,inf,0,inf,0,inf,0,inf,
250 Mercer St Apt B907,"New York, NY 10012","250 Mercer St Apt B907 New York, NY 10012 ",40.7282326,-73.9953422,21,0.5869454232970152,3,1.0773762427494242,140,0.1614941127987154,41,0.2349946370233967,3206,0.0582540470212924,185,0.0454123035161897,14,0.2959595489506449,21,0.0339035988492556,1426,0.0542848759184174,155,0.1614941127987154,1,1.2710879595443825,45,0.1734187874703884,22,0.2131409445267017,199,0.1817965930342804,
186 Fisher Ave,"Staten Island, NY 10307","186 Fisher Ave Staten Island, NY 10307 ",40.5133745,-74.2428535,6,1.1187542176365373,0,inf,6,0.245324284886069,0,inf,62,0.1694280165030316,15,1.082369266519326,0,inf,0,inf,167,0.1757367381030592,8,0.245324284886069,0,inf,1,2.3564448605846304,0,inf,7,0.251314422666419,
160 Woods of Arden Rd,"Staten Island, NY 10312","160 Woods of Arden Rd Staten Island, NY 10312 ",40.5367142,-74.164846,1,2.179617964588892,0,inf,8,0.5334690670864902,0,inf,93,0.3597607114880952,3,2.534760642077761,0,inf,0,inf,217,0.2894195427564766,8,0.5334690670864902,0,inf,1,2.7350743020163537,0,inf,9,0.594137259080164,
150 Central Park S # 609/610,"New York, NY 10019","150 Central Park S # 609/610 New York, NY 10019 ",40.7661258,-73.9779145,15,0.6922468855587722,3,0.301949608183676,111,0.1506031592863734,33,0.2906453258680701,2823,0.0185920931907652,171,0.2052926636491021,12,0.3288336741929647,21,0.3878330897053875,1549,0.0247006049223084,118,0.1506031592863734,1,2.1533134677786494,34,0.447369533094515,25,0.3408692372256542,193,0.1040054591119052,
18 W 70th St Apt 9H,"New York, NY 10023","18 W 70th St Apt 9H New York, NY 10023 ",40.7749836,-73.9774438,15,0.3930841394016249,3,0.5348273221725502,102,0.1147044917656488,20,0.5141089000981133,2343,0.1127431008472827,184,0.2015109034103545,11,0.6197265182878438,14,0.307115275070365,1477,0.0197318387307095,111,0.1147044917656488,1,2.7587127605192907,30,0.249171643856504,22,0.1070159608247492,178,0.2386190463000604,
151-15 84th St Unit 6M,"Howard Beach, NY 11414","151-15 84th St Unit 6M Howard Beach, NY 11414 ",40.6672403,-73.8500973,20,0.6952981786908857,1,0.448511780473219,42,0.8158303134039053,6,1.9660344266961185,175,0.0973684405660647,33,0.9104934493561349,0,inf,0,inf,961,0.2783762548843181,48,0.8158303134039053,0,inf,0,inf,3,1.8862401789526264,33,0.0625740639468456,
42-42 Colden St Unit B23,"Flushing, NY 11355","42-42 Colden St Unit B23 Flushing, NY 11355 ",40.7545099,-73.82713,13,0.449479939496594,2,0.2223203306419931,15,0.3826476125329361,2,0.5791985425813927,563,0.0455908113730798,30,0.2697905974707061,1,2.7451229420199548,0,inf,1192,0.0357218647351784,22,0.3114941711254647,1,2.8688406620384197,1,1.3617935672210786,4,1.0035530612806869,93,0.0212686649073766,
86-29 155th Ave Unit 3J,"Howard Beach, NY 11414","86-29 155th Ave Unit 3J Howard Beach, NY 11414 ",40.6649999,-73.84857,18,0.8620100811492689,1,0.6129898564993268,40,0.7944164622769054,5,2.0244828174061182,147,0.200575130424879,30,0.7972967713585833,0,inf,0,inf,909,0.1258734065953004,44,0.7944164622769054,0,inf,0,inf,3,1.960984442518683,27,0.1748869554715536,
148 City Island Ave Unit E12,"Bronx, NY 10464","148 City Island Ave Unit E12 Bronx, NY 10464 ",40.8420969,-73.7843991,9,0.9748621838736752,0,inf,4,2.3926905969348518,0,inf,27,0.3016108231054903,12,0.8923728335282852,0,inf,0,inf,160,0.0220516260825353,4,2.3926905969348518,1,1.6870071677364384,2,2.3311043507450093,2,2.538968059424064,6,0.5197345539728401,
160 E 38th St Apt 18C,"New York, NY 10016","160 E 38th St Apt 18C New York, NY 10016 ",40.7485444,-73.9773641,17,0.9198445466811934,3,0.4565823148800463,130,0.2122214421856697,41,0.6485119946941633,3416,0.0413047338695024,179,0.2632750006704404,13,0.1641529000821441,21,0.3266035133457585,1588,0.071450738256636,137,0.2122214421856697,1,0.9532444863087032,45,0.1430002794236849,26,0.292193805739216,214,0.0512403541912662,
200 E 16th St Apt 2D,"Manhattan, NY 10003","200 E 16th St Apt 2D Manhattan, NY 10003 ",40.7344937,-73.9862705,22,0.3200157550045511,3,0.8735508227718077,147,0.096925814936914,40,0.5101457023716229,3227,0.0193484937253829,195,0.0601724218751562,15,0.1769162331962299,23,0.3510119952877108,1516,0.0712745064150908,160,0.096925814936914,1,0.7032308467632018,46,0.3306113433776554,28,0.4315736783489869,211,0.0366798144748836,
160 E 38th St Apt 7G,"New York, NY 10016","160 E 38th St Apt 7G New York, NY 10016 ",40.7485444,-73.9773641,17,0.9198445466811934,3,0.4565823148800463,130,0.2122214421856697,41,0.6485119946941633,3416,0.0413047338695024,179,0.2632750006704404,13,0.1641529000821441,21,0.3266035133457585,1588,0.071450738256636,137,0.2122214421856697,1,0.9532444863087032,45,0.1430002794236849,26,0.292193805739216,214,0.0512403541912662,
308 W 103rd St Apt 2G,"Manhattan, NY 10025","308 W 103rd St Apt 2G Manhattan, NY 10025 ",40.7996534,-73.97021,17,0.6880934010111901,1,2.2556973793513304,69,0.0938524975889976,8,1.4217027301452816,1385,0.0796908756003218,199,0.1411090286964945,7,0.9005660213826477,4,1.618138299186688,1143,0.0886200670211826,73,0.0938524975889976,0,inf,19,1.1183056755980327,21,0.2931910589378361,123,0.1117225730305152,
2315 Healy Ave,"Far Rockaway, NY 11691","2315 Healy Ave Far Rockaway, NY 11691 ",40.6050885,-73.7595762,3,1.405847271907661,0,inf,8,0.2757665809063929,0,inf,53,0.364318517261947,10,0.3084205940811876,0,inf,0,inf,157,0.3213153487618421,16,0.2757665809063929,0,inf,1,1.3662080598501365,1,2.312354875982402,6,0.6371137871373092,
1 Central Park S # 506,"New York, NY 10019","1 Central Park S # 506 New York, NY 10019 ",40.7691094,-73.98162,15,0.4306338588296594,3,0.0800342233868508,105,0.0525760184044662,27,0.0564710483415886,2688,0.0099368962540789,171,0.1415023379997118,13,0.3408813742182008,21,0.1053230961849841,1499,0.0313620994085361,113,0.0525760184044662,1,2.387311819492251,30,0.2843087987859947,25,0.0579621180009493,185,0.0740424139887225,
3224 Fulton St,"Brooklyn, NY 11208","3224 Fulton St Brooklyn, NY 11208 ",40.6823821,-73.8760553,24,0.3611770464386394,1,1.270016447497882,63,0.1600558475254917,15,1.598773245539628,498,0.0870988483018937,78,0.0759689455390155,0,inf,0,inf,1530,0.1215685640031611,68,0.1600558475254917,0,inf,1,3.0339734054137875,4,1.2969294066611825,72,0.2431562131439825,
45 E 66th St Apt 5W,"Manhattan, NY 10065","45 E 66th St Apt 5W Manhattan, NY 10065 ",40.767785,-73.9681416,16,1.0752126614600948,3,0.7717392369981361,112,0.2111481228577502,34,0.3798893947587051,2779,0.019189696014096,182,0.0968113470495647,13,0.2174683622162227,21,0.7249261380012954,1580,0.0048230607197574,120,0.2111481228577502,1,2.2654757807831696,29,0.2159904736306728,23,0.1778837057639702,202,0.2829843726166704,
3850 Hudson Manor Ter Apt 6BE,"Bronx, NY 10463","3850 Hudson Manor Ter Apt 6BE Bronx, NY 10463 ",40.88954,-73.9152547,32,0.6098617414220588,1,0.7611478205657398,34,0.8252114249019742,1,1.9875350138930588,142,0.4323655351918802,92,0.3385371211529211,0,inf,0,inf,456,0.2353045501645922,45,0.8206745947669548,0,inf,3,1.580358931925554,6,0.7771639604040995,43,0.4248767883194182,
1 Rose St,"Brooklyn, NY 11236","1 Rose St Brooklyn, NY 11236 ",40.6443109,-73.9073178,24,0.1461371682930183,0,inf,49,0.3172734512130713,2,1.6880686722160154,143,0.3652272983979478,73,0.7849833573140025,0,inf,0,inf,1342,0.1251429988189334,50,0.3172734512130713,1,2.699171133619242,2,2.66111603410256,3,1.2844756253376446,36,0.5644672031059633,
435 Sycamore St,"Staten Island, NY 10312","435 Sycamore St Staten Island, NY 10312 ",40.5383847,-74.1644212,1,2.1193132623687485,0,inf,8,0.4189590152836026,0,inf,93,0.2427356184403971,3,2.473407097334736,0,inf,0,inf,220,0.204917884340493,8,0.4189590152836026,0,inf,1,2.7473663455020736,0,inf,9,0.480688391441842,
170 Detroit Ave,"Staten Island, NY 10312","170 Detroit Ave Staten Island, NY 10312 ",40.5441257,-74.1788408,1,2.7819666185751744,0,inf,8,0.252685436080915,0,inf,100,0.19856545130437,6,2.0902360167511893,0,inf,0,inf,231,0.6512163328914556,8,0.252685436080915,0,inf,1,1.994244538879288,0,inf,9,0.7163260324721035,
330 E 38th St Apt 48K,"New York, NY 10016","330 E 38th St Apt 48K New York, NY 10016 ",40.7463283,-73.972718,18,1.009381531548533,3,0.6924771234114309,134,0.3954998957123061,42,0.841828639417268,3461,0.0820633489173566,193,0.2746994779230373,13,0.3461097905449575,21,0.3356321927581057,1597,0.1068672025617512,141,0.3954998957123061,1,0.7711566302755501,45,0.3902662226964524,26,0.5157530079163044,223,0.1554057837012651,
108 Leonard St Apt 8B,"New York, NY 10013","108 Leonard St Apt 8B New York, NY 10013 ",40.7163709,-74.003384,19,0.32251947592773,2,1.7737901297023408,126,0.2072107294616136,36,0.6497856605305782,2857,0.1373230468699342,167,0.2435136087919718,11,0.1657035742035712,20,0.9386240184029162,1277,0.0735870860388095,141,0.2072107294616136,1,2.059234376160564,43,0.0746915574128451,17,0.3103376606403824,181,0.0749651430137008,
30 Bushwick Ave Unit 4D,"Brooklyn, NY 11211","30 Bushwick Ave Unit 4D Brooklyn, NY 11211 ",40.7138396,-73.9419407,24,0.6387626519248455,0,inf,109,0.1368513684905574,37,0.2692513346262655,2167,0.0354056056820129,173,0.1779149173861013,8,0.8619101582122362,10,2.536279323008204,1808,0.0859578579696208,114,0.1368513684905574,1,2.1919207179355054,18,0.5332332128148188,10,2.005694703762779,221,0.083524242162257,
432 Park Ave Unit Penthouse,"New York, NY 10022","432 Park Ave Unit Penthouse New York, NY 10022 ",40.7617561,-73.9719035,15,0.941861906236482,3,0.734120490911668,119,0.2157225021773171,40,0.0806456603887103,3086,0.0360922208196887,174,0.1414374912759923,12,0.5536904860575302,21,0.8241239254790808,1585,0.0196418319478603,126,0.2157225021773171,1,1.8364033538971056,34,0.1883822593936604,25,0.1477823424606042,209,0.2453539099120335,
480 Kent Ave Unit 16H,"Brooklyn, NY 11249","480 Kent Ave Unit 16H Brooklyn, NY 11249 ",40.7068533,-73.9683664,26,0.474234071795667,2,2.9284180503370894,147,0.559204845553093,45,0.3175056715008167,2782,0.2578012566833333,200,0.0173580859774015,13,1.413331684806522,15,2.06973723672192,1664,0.0447628641235407,151,0.559204845553093,1,1.9672290285066976,41,0.8243274072708203,15,1.0593934883788234,214,0.2704831319445077,
1117 30th Dr,"Astoria, NY 11102","1117 30th Dr Astoria, NY 11102 ",40.77033,-73.933656,16,1.2390374290054234,1,2.583121624343064,94,0.681213317048889,22,1.0788069731062022,2061,0.1315200755767759,171,0.5516739551151564,7,1.6113124485724946,6,1.179695908701028,1572,0.0641197688616531,99,0.681213317048889,0,inf,18,1.098916857568874,19,0.6823324808775663,191,0.272844155234023,
111 W 56th St Apt 41J,"New York, NY 10019","111 W 56th St Apt 41J New York, NY 10019 ",40.764066,-73.9783129,16,0.6903144894914682,3,0.3816990706736757,113,0.0457345069702391,35,0.3776035304706413,2915,0.0028964793891369,173,0.0796209739162436,12,0.2881838083882604,21,0.4867951979604644,1547,0.0527807132063395,120,0.0457345069702391,1,2.015161851577136,34,0.4435743768927999,25,0.2310380346392576,196,0.06106793917424,
2211 3rd Ave Unit 1,"New York, NY 10035","2211 3rd Ave Unit 1 New York, NY 10035 ",40.800769,-73.937393,31,0.6079054909315895,0,inf,75,0.2470613218343332,9,0.3217548968717602,1148,0.0983570006102058,231,0.1076007197940093,5,1.2264736521187791,3,1.3533351813700836,1280,0.0839960030492416,78,0.2470613218343332,0,inf,21,0.6966881466787087,14,1.4898803310894198,136,0.2283380972028883,
253 Purdy Ave,"Staten Island, NY 10314","253 Purdy Ave Staten Island, NY 10314 ",40.610281,-74.1356718,4,1.994607292217441,0,inf,3,2.506113689311957,1,1.1573508531246757,157,0.6520236736713154,19,0.4572688196685359,0,inf,1,2.465180527066835,519,0.167145574301242,4,2.506113689311957,0,inf,8,0.399468502831593,1,2.647524003551328,21,0.4917049746072242,
185 Foster Rd,"Staten Island, NY 10309","185 Foster Rd Staten Island, NY 10309 ",40.5316133,-74.2026108,1,2.936240468871676,0,inf,9,0.4409994318713363,0,inf,114,0.4053625173972943,4,0.5710777029728117,0,inf,0,inf,203,0.5331784371914332,9,0.4409994318713363,0,inf,1,0.975820691994576,0,inf,10,0.955248000828974,
274 Morrison Ave,"Staten Island, NY 10310","274 Morrison Ave Staten Island, NY 10310 ",40.6281091,-74.1155392,1,2.7854168303218563,0,inf,4,2.122567041550326,1,0.7770349603027666,155,0.0788595419817325,23,1.219349963631699,1,2.2667673925893435,1,1.3652545325310663,568,0.0590522663802212,7,1.9414034255590813,0,inf,8,0.4239922035228227,0,inf,20,0.0842061003130561,
407 Mountainview Ave,"Staten Island, NY 10314","407 Mountainview Ave Staten Island, NY 10314 ",40.60136,-74.1247989,4,1.7911890541358646,0,inf,4,1.6659610067954185,1,1.759035454017437,173,0.5185868396064423,19,0.3990630467351694,0,inf,1,2.2468097873147364,583,0.1269061118412145,4,1.6659610067954185,0,inf,5,1.1653519966553323,1,1.9142461125887589,25,0.5058129949883186,
145 Reade St,"Manhattan, NY 10013","145 Reade St Manhattan, NY 10013 ",40.7164065,-74.0101344,17,0.4243828437371291,2,1.790780886222436,119,0.0776080198931695,33,0.9044085073880216,2642,0.0298885778174777,161,0.4459657338982488,11,0.209909472330375,20,1.1243053700500976,1238,0.0338312627987566,133,0.0776080198931695,1,2.343882200325061,42,0.3231087223257489,16,0.232196592671525,171,0.1004817630769412,
40 E 80th St Apt 21A,"Manhattan, NY 10075","40 E 80th St Apt 21A Manhattan, NY 10075 ",40.7768173,-73.9615575,15,0.9709176178383498,2,1.2579257751264847,100,0.2361420119882863,21,1.0920838329682354,2318,0.0582208455373809,184,0.1183380141696682,10,0.6805006272513139,11,0.9025653361104568,1486,0.0215039311806766,106,0.2361420119882863,1,2.9358896132589845,25,0.2179420488917332,23,0.5916962503932871,190,0.2781921400168198,
269 87th St,"Brooklyn, NY 11209","269 87th St Brooklyn, NY 11209 ",40.6230399,-74.0318599,2,0.6768786368510606,0,inf,36,0.1879405007692121,0,inf,380,0.0221312253610235,36,0.232517736587388,1,2.76955695496732,0,inf,863,0.0314772516184187,36,0.1879405007692121,0,inf,2,2.82769755747878,2,1.840904242813023,64,0.1713113585549457,
153 Ramapo Ave,"Staten Island, NY 10309","153 Ramapo Ave Staten Island, NY 10309 ",40.5406081,-74.2073175,2,2.527702212391358,0,inf,9,0.9449081150129912,0,inf,110,0.1497819767370173,12,0.9980352869936858,0,inf,0,inf,203,0.0901420283309857,9,0.9449081150129912,0,inf,1,0.4840856055490176,0,inf,10,0.8088747435133052,
118-29 205th St,"Saint Albans, NY 11412","118-29 205th St Saint Albans, NY 11412 ",40.6940714,-73.746401,17,0.6890019316146674,0,inf,3,2.345899520016469,4,1.1135288507532146,151,0.1382638435908563,29,0.2853327384445554,0,inf,0,inf,1064,0.0647850614810013,13,1.0250375860478929,0,inf,0,inf,2,0.3592887040080081,50,0.2587750373453145,
203 Pelton Ave,"Staten Island, NY 10310","203 Pelton Ave Staten Island, NY 10310 ",40.6382662,-74.1106676,1,2.078699056064208,0,inf,4,1.882360089031326,1,1.3068929132507852,129,0.2509890108651441,24,0.5774016167016679,1,1.7871601018590964,1,1.553206381474874,531,0.0421657026682784,8,1.4690039668289094,0,inf,8,0.0275287767778956,0,inf,16,0.6686555816089809,
221-13 106th Ave,"Queens Village, NY 11429","221-13 106th Ave Queens Village, NY 11429 ",40.7100072,-73.7334876,16,0.262320233715571,0,inf,1,2.648891468651399,4,1.938066231634996,195,0.2292167415640481,27,0.3434601689771455,0,inf,0,inf,921,0.1837140489681699,12,0.3714949331266473,0,inf,0,inf,2,1.0988124002985142,47,0.9138920178382084,
180 Dinsmore St Apt H,"Staten Island, NY 10314","180 Dinsmore St Apt H Staten Island, NY 10314 ",40.603245,-74.1713802,4,0.2638175344221392,0,inf,0,inf,1,2.697182812830242,90,0.4634373290005896,13,0.4011591835804095,0,inf,0,inf,278,0.0932299405066608,0,inf,0,inf,2,2.075193718601272,0,inf,12,0.9610885418834644,
202 Watchogue Rd,"Staten Island, NY 10314","202 Watchogue Rd Staten Island, NY 10314 ",40.6155793,-74.1361194,4,2.138241176950584,0,inf,3,2.800170941255291,1,0.8172438917548036,135,0.598539746514899,21,0.781270655214386,0,inf,1,2.40012687689486,510,0.0278683986632544,4,2.696503020405293,0,inf,8,0.040836671239918,1,3.00317897072761,18,0.51614159247892,
1968 Mulford Ave,"Bronx, NY 10461","1968 Mulford Ave Bronx, NY 10461 ",40.8517678,-73.8344538,26,0.6325474743277455,0,inf,26,0.3456195040027869,2,1.7517689947536714,129,0.2393549882000843,93,0.5870766731322938,0,inf,0,inf,726,0.1336267816711344,29,0.3456195040027869,1,1.0385889475681818,1,2.0458999355019625,4,0.9489341296591894,38,0.2214620932588272,
22 Lyle Ct,"Staten Island, NY 10306","22 Lyle Ct Staten Island, NY 10306 ",40.5650025,-74.1376032,4,1.1803205298691306,0,inf,8,0.5759325966327619,0,inf,132,0.2100602668817501,9,0.5353428714279879,0,inf,0,inf,317,0.1839812146556957,8,0.5759325966327619,0,inf,0,inf,1,1.123027837890551,14,0.188794801218245,
191 Terrace St,"Bronx, NY 10464","191 Terrace St Bronx, NY 10464 ",40.8579169,-73.7896274,8,0.2153634539250196,0,inf,7,2.041125758486221,0,inf,38,0.3146271964669135,14,0.2385190861038345,0,inf,0,inf,236,0.1917624454253607,7,2.041125758486221,1,1.6204818803836567,1,1.2723491088806806,2,3.040647980922065,9,0.6077453100729622,
1162 Bergen Ave,"Brooklyn, NY 11234","1162 Bergen Ave Brooklyn, NY 11234 ",40.6275761,-73.9140054,21,0.7032251869940077,0,inf,27,1.4481361218397963,2,0.8603147567899725,106,0.2088693591679922,81,0.4511880826736096,1,2.906204081387581,0,inf,1132,0.2090279968507811,27,1.4481361218397963,1,1.649728031694885,2,2.739306365533358,3,1.1516478077511338,34,0.7572385682555756,
1100 Clove Rd Unit G0,"Staten Island, NY 10301","1100 Clove Rd Unit G0 Staten Island, NY 10301 ",40.6189551,-74.1072045,1,3.0632215387675195,0,inf,6,1.7953516211314415,1,1.3155808125542052,170,0.2638635158849927,19,0.7246067067457694,1,2.3011973489849016,1,0.8625735792207896,606,0.2395801292403916,8,1.7953516211314415,0,inf,8,1.0984141314667213,0,inf,21,0.6179694605826395,
28 Mandy Ct,"Staten Island, NY 10309","28 Mandy Ct Staten Island, NY 10309 ",40.5370508,-74.2187697,5,2.00780120202746,0,inf,8,1.006717126933944,0,inf,89,0.6992575805681965,16,0.8375995235342345,0,inf,0,inf,201,0.1994177693212964,8,1.006717126933944,0,inf,1,0.2961387387953567,0,inf,8,1.017471282087737,
27110 Grand Central Pkwy Apt 18E,"Floral Park, NY 11005","27110 Grand Central Pkwy Apt 18E Floral Park, NY 11005 ",40.7250575,-73.7586039,16,1.233992231849906,0,inf,6,1.576595954810239,2,2.709113686491743,258,0.2579004815576456,22,0.8773700768190704,0,inf,0,inf,1180,0.1654673388610043,17,1.1110095346631792,0,inf,0,inf,2,2.314540319026608,64,0.2793204466174336,
3686 Broadway,"New York, NY 10031","3686 Broadway New York, NY 10031 ",40.8309376,-73.9467509,34,0.3453865134517139,0,inf,68,0.2364372253051895,4,1.521130397363832,556,0.1317717672813465,206,0.2189408503707138,4,0.1686788564606943,1,0.9354250197087736,1003,0.0543549209060079,74,0.2364372253051895,0,inf,13,0.1290309986726251,10,0.6472534019612266,99,0.3376169704775856,
48 E 132nd St Apt 5E,"New York, NY 10037","48 E 132nd St Apt 5E New York, NY 10037 ",40.809643,-73.936802,31,0.2319732249460296,0,inf,73,0.3666692632689725,5,0.8008649173823351,919,0.3077444445324359,214,0.094893077544764,4,0.8161243715660025,1,0.9060087845921008,1194,0.052367975415906,76,0.323500355104511,0,inf,18,0.3303489144098411,9,1.0885646830357196,121,0.3198107803618631,
207-16 28th Ave,"Bayside, NY 11360","207-16 28th Ave Bayside, NY 11360 ",40.7735337,-73.7831962,12,0.698250984776044,2,2.670032728285724,1,2.632957352481053,1,2.642893720340391,253,0.4043757371647157,22,0.6405301040235661,0,inf,0,inf,712,0.1574996956931205,9,0.9012957676123,0,inf,1,2.2210008731823327,5,0.550566237870889,37,0.5320226057958802,
161 Beach Rd,"Staten Island, NY 10312","161 Beach Rd Staten Island, NY 10312 ",40.5376803,-74.1526108,1,1.564578262050312,0,inf,8,0.797790733430811,0,inf,95,0.099169192815487,4,2.326258747526228,0,inf,0,inf,217,0.1035030467905936,8,0.797790733430811,0,inf,0,inf,1,3.039405232031554,9,0.7157193108119746,
5115 Tilden Ave,"Brooklyn, NY 11203","5115 Tilden Ave Brooklyn, NY 11203 ",40.6484996,-73.9285115,28,0.9301694854911676,0,inf,69,1.0982133639387943,5,0.5415770855473303,350,0.1442087874839429,114,0.3260361205064595,1,2.348918484845536,0,inf,1665,0.0733452510876197,71,1.0982133639387943,0,inf,4,1.5249008872855203,4,2.00179032093391,80,0.5555655296869636,
35 Remsen St,"Brooklyn, NY 11201","35 Remsen St Brooklyn, NY 11201 ",40.695015,-73.9970887,22,0.8591792328231149,0,inf,116,0.2723915664923921,24,1.3116735464534888,2212,0.0465597055753099,171,0.3943818760505947,9,0.6237239293075114,13,2.3219478244131944,1203,0.2356578594150896,125,0.2723915664923921,1,3.046917442624962,32,0.4854815564451116,13,0.3082982854910473,172,0.231360870160376,
2711 Bruckner Blvd,"Bronx, NY 10465","2711 Bruckner Blvd Bronx, NY 10465 ",40.8305073,-73.8336128,21,0.3727754834375466,0,inf,22,0.8106038358274067,3,2.12412790520036,100,0.5037155922976039,65,0.3248116510387252,0,inf,0,inf,595,0.3145653274432005,22,0.8106038358274067,1,1.400395964977553,1,2.834870594932594,6,0.8376439841085674,25,0.570039252241226,
119 W 80th St Apt 2F,"Manhattan, NY 10024","119 W 80th St Apt 2F Manhattan, NY 10024 ",40.7829767,-73.9754311,12,0.5524791879619041,2,1.0779442471304574,89,0.2016073713661092,12,1.0597897941981946,2050,0.0368879001873179,184,0.1619302853512201,10,1.0339999457532187,11,0.7479467095789967,1386,0.0255986054947505,97,0.2016073713661092,0,inf,24,0.1049256718579529,23,0.6527890159757129,162,0.3098861613650961,
30 Clinton Ct,"Staten Island, NY 10301","30 Clinton Ct Staten Island, NY 10301 ",40.639587,-74.0967888,1,2.13836901289398,0,inf,4,1.1633468613574327,1,1.9729005179495809,116,0.1510241994084356,21,0.3928431531462773,1,1.055240366324783,1,1.2904600410498386,508,0.08191655864051,8,1.1633468613574327,0,inf,8,0.3441566175671943,0,inf,14,1.1149353678869611,
268 Gansevoort Blvd,"Staten Island, NY 10314","268 Gansevoort Blvd Staten Island, NY 10314 ",40.6054909,-74.1271066,4,2.0919125887330323,0,inf,4,1.960608606548192,1,1.4600853809204406,179,0.3489817153074956,21,0.2121795151521218,0,inf,1,2.1876593998198537,594,0.2413389055672277,4,1.960608606548192,0,inf,8,0.8581453017423369,1,2.214889228315735,25,0.3485846935058547,
118-11 84th Ave Unit 601,"Kew Gardens, NY 11415","118-11 84th Ave Unit 601 Kew Gardens, NY 11415 ",40.7041499,-73.83371,23,0.1746785493929533,1,2.5597179467260207,35,0.3777428489436229,6,0.7093547734021973,440,0.1769520902235463,42,0.2607089806706815,1,0.7495595170342837,0,inf,1450,0.0500561402456219,41,0.3777428489436229,0,inf,1,2.3924102719972247,4,2.2127772869938203,83,0.2509377004182758,
26910 Grand Central Pkwy Apt 7C,"Floral Park, NY 11005","26910 Grand Central Pkwy Apt 7C Floral Park, NY 11005 ",40.7566899,-73.72075,11,1.0083824227003937,0,inf,0,inf,1,1.4669609355245223,152,0.6221399675628604,18,0.6655231678137712,0,inf,0,inf,475,0.0959267502998764,11,1.6350833758112755,0,inf,0,inf,3,1.3486489560323145,21,0.8350001483606757,
1858 E 29th St,"Brooklyn, NY 11229","1858 E 29th St Brooklyn, NY 11229 ",40.6058732,-73.9442161,4,1.0499953587502928,0,inf,42,0.7366095931503914,1,1.322869090899784,263,0.394355345784785,83,0.2412905707765965,1,0.9468095740894,0,inf,1095,0.0836255053619052,42,0.7366095931503914,1,2.2016181487945654,3,2.7717325941234936,3,1.1138423575713456,58,0.4023180703864033,
969 Park Ave Unit 1D,"Manhattan, NY 10028","969 Park Ave Unit 1D Manhattan, NY 10028 ",40.7778041,-73.9586415,18,0.9835200497256744,2,1.4250822901045996,101,0.2006036459077984,21,1.2282089050349962,2249,0.07748531811708,189,0.0653489345781073,10,0.7890178353326089,11,0.921617748841747,1480,0.078576818535772,107,0.2006036459077984,1,3.036633797771945,24,0.1463094803705301,22,0.7136648827558332,189,0.1686464876264992,
153 S 4th St Apt 5,"Brooklyn, NY 11211","153 S 4th St Apt 5 Brooklyn, NY 11211 ",40.711735,-73.9620442,27,0.5647282095128736,2,2.745130102544608,156,0.3158796341798761,45,0.1422922981355973,2976,0.008963222552393,208,0.071110688048673,14,1.2557342995471186,16,2.0879081128724493,1781,0.1132796851366132,161,0.3158796341798761,1,1.7134877106434645,40,0.3646489270719292,16,1.0641301820886035,232,0.0566258088256564,
430 E 58th St Ph 80,"New York, NY 10022","430 E 58th St Ph 80 New York, NY 10022 ",40.7582785,-73.9612457,15,0.3435155590359351,3,1.3305616289748508,120,0.4232481519361674,44,0.6140491096823567,3180,0.0538996566767596,179,0.1922123712308692,12,0.6296031516911591,21,0.5567563324851634,1613,0.0701476704675023,125,0.4232481519361674,1,1.7089006204681825,35,0.5379749269182124,24,0.485100474679328,221,0.0953436606897218,
567 Ocean Ave,"Brooklyn, NY 11226","567 Ocean Ave Brooklyn, NY 11226 ",40.649066,-73.9604707,16,0.3305052569226812,0,inf,83,0.1660738559607648,5,1.194989770274583,762,0.1518069836789492,156,0.1871561339495132,2,2.2802514297794567,0,inf,1704,0.0701203317756899,85,0.1660738559607648,0,inf,6,0.1582943714415871,5,1.455568816433368,126,0.1209556756697889,
41 Bennett Pl,"Staten Island, NY 10312","41 Bennett Pl Staten Island, NY 10312 ",40.5293092,-74.1644533,1,2.394954670504879,0,inf,7,1.04467300454716,0,inf,86,0.1059860721925976,2,2.462236096653424,0,inf,0,inf,189,0.0930339405769203,7,1.04467300454716,0,inf,1,2.855875791504663,0,inf,8,1.105500660554244,
128 Lake Ave,"Staten Island, NY 10303","128 Lake Ave Staten Island, NY 10303 ",40.6337045,-74.1511773,4,2.340156426652018,0,inf,0,inf,2,1.2103802905198944,99,0.5892378664476042,28,0.4748417254435148,0,inf,0,inf,375,0.2238211896846756,2,1.8349151893984532,0,inf,7,1.4642049160390689,0,inf,11,0.6842665084113714,
61-25 255th St Unit 979,"Little Neck, NY 11362","61-25 255th St Unit 979 Little Neck, NY 11362 ",40.7581699,-73.72413,12,1.135539388653503,0,inf,0,inf,1,1.6362010060527965,152,0.4650322904983832,17,0.8623363104453309,0,inf,0,inf,484,0.0809980225118512,11,1.4430217450836345,0,inf,0,inf,3,1.5523452446840194,21,0.7410669473484541,
35 62nd St,"Manhattan, NY 10065","35 62nd St Manhattan, NY 10065 ",40.7654146,-73.9693523,15,0.9917137142142828,3,0.7365067645162653,115,0.1783840879008555,37,0.2054955151978361,2928,0.0434044046873381,175,0.0346503595068865,12,0.301105058370889,21,0.7589729404307892,1579,0.1172856770800505,122,0.1783840879008555,1,2.0963905312167435,31,0.1011492380463245,23,0.237089761201075,207,0.2509683915587408,
100 W 57th St Apt 11J,"New York, NY 10019","100 W 57th St Apt 11J New York, NY 10019 ",40.7614835,-73.97081,15,0.8827451368863277,3,0.7909523460353433,119,0.1753632452685916,40,0.0965148108238981,3103,0.0577470333708607,174,0.1040587023989242,12,0.5264288852452086,21,0.8640570830560274,1586,0.0260466974546605,126,0.1753632452685916,1,1.820157102638967,34,0.1806895978449662,25,0.0959965252241751,211,0.2440307211423991,
6451 59th Ave,"Maspeth, NY 11378","6451 59th Ave Maspeth, NY 11378 ",40.7204422,-73.8993415,11,2.189932212854006,0,inf,79,0.8016893684606726,30,0.5865922647804187,1236,0.1804934272794425,92,0.4129721558251639,1,2.616708620633251,0,inf,1604,0.1728983861129772,83,0.8016893684606726,0,inf,4,1.2692933600930998,3,1.1046235886532532,153,0.2832779392653403,
263 Albee Ave,"Staten Island, NY 10312","263 Albee Ave Staten Island, NY 10312 ",40.5361943,-74.1819234,1,3.044534252607313,0,inf,8,0.3666503634897807,0,inf,114,0.3843377024540487,3,1.6757393020424618,0,inf,0,inf,219,0.0883864681336513,8,0.3666503634897807,0,inf,1,1.84991223496012,0,inf,9,1.0770120349661654,
36 E 63rd St,"Manhattan, NY 10065","36 E 63rd St Manhattan, NY 10065 ",40.7657311,-73.9690147,15,0.9956293203145576,3,0.7478440728285729,113,0.1701734048771362,38,0.2332959548049473,2911,0.0532917029331537,177,0.0558836729317513,13,0.2764947332027933,21,0.7429583619301849,1570,0.1256681720114386,120,0.1701734048771362,1,2.119775326810509,31,0.1273810806682145,23,0.2586088447096223,206,0.2415301014270617,
4 W 101st St Apt 5,"Manhattan, NY 10025","4 W 101st St Apt 5 Manhattan, NY 10025 ",40.7947364,-73.9624506,19,0.4837834129906835,1,2.1081893441906057,83,0.109405884725622,8,1.0574986763833971,1584,0.031911147465144,208,0.160076579809898,8,1.0721695703794656,5,1.703203726049032,1269,0.0174851671209323,87,0.109405884725622,0,inf,19,0.6967178495380232,24,0.2804894270603201,143,0.0528048551447125,
12 Bunnell Ct,"Staten Island, NY 10312","12 Bunnell Ct Staten Island, NY 10312 ",40.5524654,-74.2004814,3,2.464268478123714,0,inf,7,1.3807812489513254,0,inf,119,0.3759213159943353,13,1.847909565510208,0,inf,0,inf,232,0.2771874837766639,7,1.3807812489513254,0,inf,1,1.157251071783393,0,inf,11,0.3509380733641178,
83 118th St Unit 3J,"Queens, NY 11415","83 118th St Unit 3J Queens, NY 11415 ",40.7059307,-73.8342344,23,0.282218196596394,1,2.656449152649002,34,0.4853696042206994,6,0.6262926890708289,446,0.0751614173778023,45,0.1823147621104193,1,0.635081868111467,0,inf,1444,0.0700033231071741,39,0.308896990600831,0,inf,1,2.2894556498417185,4,2.194781061134062,86,0.1291367325158733,
284 Chelsea St,"Staten Island, NY 10307","284 Chelsea St Staten Island, NY 10307 ",40.5028503,-74.2441097,6,0.984762150424858,0,inf,5,0.7998226317571838,0,inf,48,0.4953255786170507,16,1.248424560234066,0,inf,0,inf,148,0.1055977517712133,7,0.7998226317571838,0,inf,1,3.0057585602254244,0,inf,6,0.9731846393040616,
2132 2nd Ave Unit 7B,"New York, NY 10029","2132 2nd Ave Unit 7B New York, NY 10029 ",40.792914,-73.9404066,26,0.3817615690409937,1,2.795015407783816,83,0.2436695574641975,12,0.4479399997347043,1452,0.0116321259865402,228,0.0357208307484572,7,1.573469123540301,4,1.7884524850542218,1375,0.0281632235364781,86,0.2436695574641975,0,inf,21,0.5245243182921043,20,1.4395206031091172,157,0.1036631246484509,
243-30 132nd Ave,"Rosedale, NY 11422","243-30 132nd Ave Rosedale, NY 11422 ",40.6752694,-73.7284181,11,0.5197520723328797,0,inf,0,inf,4,0.8004043731686613,135,0.1150981976130308,25,0.5971681299823999,0,inf,0,inf,747,0.06921507726181,13,0.7540295489819078,0,inf,0,inf,1,1.4695223810069,21,0.3774912612454024,
38 Milbank Rd,"Staten Island, NY 10306","38 Milbank Rd Staten Island, NY 10306 ",40.560864,-74.1022927,2,1.3837243056904984,0,inf,6,1.1728816553123784,0,inf,98,0.5090517207320107,6,0.7430514624582786,0,inf,0,inf,250,0.3836286564467338,6,1.1728816553123784,0,inf,0,inf,1,1.2840704392420932,11,0.613484581989097,
2626 National Dr,"Brooklyn, NY 11234","2626 National Dr Brooklyn, NY 11234 ",40.6059,-73.9020338,12,0.4972628128091272,0,inf,6,2.7985664626653253,1,1.5573702557107485,80,0.8622807399270281,30,1.6606850159577766,0,inf,0,inf,635,0.3673669214186595,6,2.7985664626653253,1,0.0399398441795145,1,1.2536780339769429,1,1.9022236639903705,17,0.8704428344396626,
33-71 Prince St Unit A,"Flushing, NY 11354","33-71 Prince St Unit A Flushing, NY 11354 ",40.765949,-73.833088,13,0.2241185937304981,2,0.6021614123083706,12,0.4664356782953883,2,0.2699763044433145,434,0.1008828708084875,24,0.2569688971989815,0,inf,0,inf,1012,0.1257161226738516,17,0.4664356782953883,1,2.1251948908101537,1,2.210560130929156,4,0.3914297166720777,80,0.2116439945684995,
1084 E 73rd St Apt 4,"Brooklyn, NY 11234","1084 E 73rd St Apt 4 Brooklyn, NY 11234 ",40.6281559,-73.916991,21,0.6111715194377548,0,inf,31,1.4891207585706767,2,0.7838959708058556,121,0.1329375203888275,87,0.3715058615752213,1,2.7912718002324364,0,inf,1181,0.0757115112843861,31,1.4891207585706767,1,1.7500606420325575,2,2.586826957126322,4,1.0377246647288485,37,0.7567296361512377,
1233 Todt Hill Rd,"Staten Island, NY 10304","1233 Todt Hill Rd Staten Island, NY 10304 ",40.5813722,-74.1131728,2,0.5353470208359332,0,inf,6,0.248503567115387,0,inf,106,0.232756866512733,14,0.7965675125057394,0,inf,1,2.995195295753578,409,0.0508799286881467,6,0.248503567115387,0,inf,1,2.6709949348467474,1,0.6207663194717942,20,0.5878439564429465,
115 E 235th St,"Bronx, NY 10470","115 E 235th St Bronx, NY 10470 ",40.8972579,-73.8719301,36,0.4970967521035216,1,2.698378668193524,28,0.8063909197981816,0,inf,106,0.2506576803176354,107,0.2797990080348897,1,2.024142927419933,0,inf,573,0.1933577504407185,41,0.5070288312161767,0,inf,0,inf,3,1.4430791038521142,39,0.2362038368847761,
184 Hull St Apt C,"Brooklyn, NY 11233","184 Hull St Apt C Brooklyn, NY 11233 ",40.6796694,-73.9080688,34,0.3897635980110371,1,2.7612038470111693,81,0.1721670374732038,21,0.856382407967876,609,0.1658100786074653,122,0.4341245872820153,2,1.9579180985418776,0,inf,1727,0.1082323365617679,83,0.1721670374732038,0,inf,2,2.245045985124794,4,1.536980937786436,99,0.3332017359356293,
4 W 101st St Apt 5,"Manhattan, NY 10025","4 W 101st St Apt 5 Manhattan, NY 10025 ",40.7947364,-73.9624506,19,0.4837834129906835,1,2.1081893441906057,83,0.109405884725622,8,1.0574986763833971,1584,0.031911147465144,208,0.160076579809898,8,1.0721695703794656,5,1.703203726049032,1269,0.0174851671209323,87,0.109405884725622,0,inf,19,0.6967178495380232,24,0.2804894270603201,143,0.0528048551447125,
36 E 63rd St,"Manhattan, NY 10065","36 E 63rd St Manhattan, NY 10065 ",40.7657311,-73.9690147,15,0.9956293203145576,3,0.7478440728285729,113,0.1701734048771362,38,0.2332959548049473,2911,0.0532917029331537,177,0.0558836729317513,13,0.2764947332027933,21,0.7429583619301849,1570,0.1256681720114386,120,0.1701734048771362,1,2.119775326810509,31,0.1273810806682145,23,0.2586088447096223,206,0.2415301014270617,
12 Bunnell Ct,"Staten Island, NY 10312","12 Bunnell Ct Staten Island, NY 10312 ",40.5524654,-74.2004814,3,2.464268478123714,0,inf,7,1.3807812489513254,0,inf,119,0.3759213159943353,13,1.847909565510208,0,inf,0,inf,232,0.2771874837766639,7,1.3807812489513254,0,inf,1,1.157251071783393,0,inf,11,0.3509380733641178,
284 Chelsea St,"Staten Island, NY 10307","284 Chelsea St Staten Island, NY 10307 ",40.5028503,-74.2441097,6,0.984762150424858,0,inf,5,0.7998226317571838,0,inf,48,0.4953255786170507,16,1.248424560234066,0,inf,0,inf,148,0.1055977517712133,7,0.7998226317571838,0,inf,1,3.0057585602254244,0,inf,6,0.9731846393040616,
2132 2nd Ave Unit 7B,"New York, NY 10029","2132 2nd Ave Unit 7B New York, NY 10029 ",40.792914,-73.9404066,26,0.3817615690409937,1,2.795015407783816,83,0.2436695574641975,12,0.4479399997347043,1452,0.0116321259865402,228,0.0357208307484572,7,1.573469123540301,4,1.7884524850542218,1375,0.0281632235364781,86,0.2436695574641975,0,inf,21,0.5245243182921043,20,1.4395206031091172,157,0.1036631246484509,
243-30 132nd Ave,"Rosedale, NY 11422","243-30 132nd Ave Rosedale, NY 11422 ",40.6752694,-73.7284181,11,0.5197520723328797,0,inf,0,inf,4,0.8004043731686613,135,0.1150981976130308,25,0.5971681299823999,0,inf,0,inf,747,0.06921507726181,13,0.7540295489819078,0,inf,0,inf,1,1.4695223810069,21,0.3774912612454024,
38 Milbank Rd,"Staten Island, NY 10306","38 Milbank Rd Staten Island, NY 10306 ",40.560864,-74.1022927,2,1.3837243056904984,0,inf,6,1.1728816553123784,0,inf,98,0.5090517207320107,6,0.7430514624582786,0,inf,0,inf,250,0.3836286564467338,6,1.1728816553123784,0,inf,0,inf,1,1.2840704392420932,11,0.613484581989097,
2626 National Dr,"Brooklyn, NY 11234","2626 National Dr Brooklyn, NY 11234 ",40.6059,-73.9020338,12,0.4972628128091272,0,inf,6,2.7985664626653253,1,1.5573702557107485,80,0.8622807399270281,30,1.6606850159577766,0,inf,0,inf,635,0.3673669214186595,6,2.7985664626653253,1,0.0399398441795145,1,1.2536780339769429,1,1.9022236639903705,17,0.8704428344396626,
27-41 168 St,"Flushing, NY 11358","27-41 168 St Flushing, NY 11358 ",40.770966,-73.7965391,16,0.9150131678926512,2,1.9650528899640745,2,1.9186593847997453,1,1.922128508442821,257,0.1666300517208846,21,0.5277431516777841,0,inf,0,inf,787,0.1181328678632365,10,0.6955852394645414,0,inf,2,2.3770930638803294,5,0.2029517365864701,44,0.8545145157648923,
16 Redwood Loop,"Staten Island, NY 10309","16 Redwood Loop Staten Island, NY 10309 ",40.5479041,-74.2147155,4,2.099621455370535,0,inf,7,1.5553334809817498,0,inf,102,0.2877427350453823,14,1.494150318161917,0,inf,0,inf,186,0.2999746736106097,7,1.5553334809817498,0,inf,1,0.4870475113212261,0,inf,10,0.2790053191687106,
241 E 234th St,"Bronx, NY 10470","241 E 234th St Bronx, NY 10470 ",40.8969212,-73.8689466,35,0.3391813631794912,1,2.8262318904870987,28,0.6519894391712479,0,inf,99,0.1141468702799242,103,0.180151055364364,1,1.898241887566032,0,inf,576,0.1282521352222332,40,0.3494871635371225,0,inf,0,inf,3,1.5920991488912253,38,0.088447827432155,
96 Circle Rd,"Staten Island, NY 10304","96 Circle Rd Staten Island, NY 10304 ",40.5978794,-74.1065153,1,1.6907721227814878,0,inf,6,0.999570102314401,1,2.3352654355979445,177,0.7442049547593765,16,0.6777391586816455,0,inf,1,1.8133017220017855,563,0.4480053896067221,6,0.999570102314401,0,inf,5,1.9821093535806944,1,1.7952436782164731,22,1.0555327848026292,
100 W 57th St Apt 18G,"New York, NY 10019","100 W 57th St Apt 18G New York, NY 10019 ",40.7614835,-73.97081,15,0.8827451368863277,3,0.7909523460353433,119,0.1753632452685916,40,0.0965148108238981,3103,0.0577470333708607,174,0.1040587023989242,12,0.5264288852452086,21,0.8640570830560274,1586,0.0260466974546605,126,0.1753632452685916,1,1.820157102638967,34,0.1806895978449662,25,0.0959965252241751,211,0.2440307211423991,
48 Oceanic Ave,"Staten Island, NY 10312","48 Oceanic Ave Staten Island, NY 10312 ",40.533576,-74.1522828,1,1.700061582160549,0,inf,7,1.0018631671639169,0,inf,87,0.2691755735866915,3,2.602197419466406,0,inf,0,inf,198,0.0923863461275671,7,1.0018631671639169,0,inf,0,inf,0,inf,8,0.9659602153261226,
3061 Scenic Pl,"Bronx, NY 10463","3061 Scenic Pl Bronx, NY 10463 ",40.8847335,-73.9204591,34,0.3367681491024026,1,0.4552153975201117,35,0.8986647043415184,2,1.6390552935804517,154,0.7024364254748404,89,0.4943795606403403,0,inf,0,inf,467,0.4095194910263185,45,0.4145312561835279,0,inf,3,1.2040408732289525,6,1.1009685374998128,42,0.5877722729039248,
430 Lenox Ave Unit 2F,"New York, NY 10037","430 Lenox Ave Unit 2F New York, NY 10037 ",40.8117512,-73.9422538,31,0.1916785153160147,0,inf,73,0.1785422281651065,4,0.8760334755201139,917,0.0932044215310726,218,0.1883186318207453,4,0.4963516968178827,1,0.5939626356468556,1148,0.0273223693174172,76,0.1785422281651065,0,inf,19,0.1317990969078839,9,0.9982558855424593,117,0.0480889463930391,
127 W 111th St,"New York, NY 10026","127 W 111th St New York, NY 10026 ",40.7996794,-73.9533721,26,0.754471112788067,1,2.654228249600383,78,0.0931339436623755,7,0.5398294361810707,1331,0.0717543880741482,218,0.1798152647698386,7,0.8033655562961196,4,1.251319229752106,1211,0.0794090704278777,81,0.0931339436623755,0,inf,21,0.3128435139512911,22,0.7511916685433769,140,0.0783105689376833,
155 Nicolosi Dr,"Staten Island, NY 10312","155 Nicolosi Dr Staten Island, NY 10312 ",40.520812,-74.1778719,0,inf,0,inf,7,1.1491322979808485,0,inf,103,0.9938064154632676,2,1.790284017867171,0,inf,0,inf,174,0.381038105836572,7,1.1491322979808485,0,inf,1,2.464194472891468,0,inf,9,1.8153636032832972,
97-40 62nd Dr Unit 1F,"Rego Park, NY 11374","97-40 62nd Dr Unit 1F Rego Park, NY 11374 ",40.7327399,-73.86077,14,1.6209615736336145,2,2.168319593088768,35,0.1917210178172256,8,1.7826000676580158,819,0.1102849311371249,45,0.7784412749329485,1,1.981025322008793,0,inf,1389,0.0596438795773403,40,0.1917210178172256,0,inf,1,2.3165537057857013,4,1.735961131075091,127,0.1009719529303532,
1903 Tomlinson Ave,"Bronx, NY 10461","1903 Tomlinson Ave Bronx, NY 10461 ",40.8519536,-73.8540929,37,0.5153898787255037,0,inf,46,0.3702791166646779,3,0.7624730130643538,149,0.0860395641664078,130,0.1487709031529817,0,inf,0,inf,987,0.0660718290644177,51,0.3702791166646779,1,2.028954496944071,1,2.8835934112803177,4,0.3062370849385876,51,0.2702523316644305,
72-03 160th St,"Fresh Meadows, NY 11365","72-03 160th St Fresh Meadows, NY 11365 ",40.7278564,-73.8086746,18,0.7004618298035895,2,2.3004565364612577,20,1.417583467952116,6,1.7714138692410486,535,0.1396240759913053,37,0.3768954780791131,1,1.486819011289994,0,inf,1486,0.1615038550178642,31,1.417583467952116,0,inf,1,0.7291482733305874,3,0.3261274648718299,107,0.21499703396135,
,,  ,,,0,inf,0,inf,0,inf,0,inf,0,inf,0,inf,0,inf,0,inf,0,inf,0,inf,0,inf,0,inf,0,inf,0,inf,
92-07 69th Ave,"Forest Hills, NY 11375","92-07 69th Ave Forest Hills, NY 11375 ",40.7145771,-73.8539377,15,1.3123888859147086,1,2.981566965933165,46,0.6966914057175378,10,0.5740946358307027,733,0.184810156011494,64,0.414865155891128,1,1.1910758210073071,0,inf,1503,0.0172808735303147,51,0.5892619016830428,0,inf,1,2.45838720652059,3,1.4153116958023595,121,0.2723005637216311,
210 Hull St Apt A,"Brooklyn, NY 11233","210 Hull St Apt A Brooklyn, NY 11233 ",40.6797711,-73.9071681,34,0.4374179092477143,1,2.716399398012617,81,0.1789121580766783,20,0.8736225035364853,591,0.1813103097919876,123,0.42607318001121,2,2.0051509307507143,0,inf,1723,0.071828398089807,83,0.1789121580766783,0,inf,2,2.2520281659068218,4,1.5061189919917617,96,0.370781544998957,
16 Holsman Rd,"Staten Island, NY 10301","16 Holsman Rd Staten Island, NY 10301 ",40.6120196,-74.0923538,1,2.901474662090328,0,inf,7,1.2771234926981887,1,2.226030764038344,163,0.2741197966334524,17,0.6643291999865424,1,2.300148998844305,1,0.6499647748517462,588,0.1863455464607726,7,1.2771234926981887,0,inf,8,1.1633446189777026,1,2.999127163148489,19,0.373963629914251,
16 Maple St,"New York, NY 12839","16 Maple St New York, NY 12839 ",40.6600293,-73.9599578,25,0.5472762790410389,0,inf,91,0.1625184786377106,8,1.2931939839900557,805,0.0249141269580609,181,0.1308427670182926,3,1.5799366954381242,0,inf,1752,0.0303461145497116,93,0.1625184786377106,0,inf,7,0.4605981709616959,5,1.5368350416880112,131,0.1101666513487302,
269 Fisher Ave,"Staten Island, NY 10307","269 Fisher Ave Staten Island, NY 10307 ",40.5118747,-74.2407004,6,1.186968496898701,0,inf,6,0.3433679106064295,0,inf,59,0.0704724661199553,15,0.965189993679668,0,inf,0,inf,166,0.3069159855790097,8,0.3433679106064295,0,inf,1,2.3782466545264787,0,inf,6,0.3853909041269606,
677 Bement Ave,"Staten Island, NY 10310","677 Bement Ave Staten Island, NY 10310 ",40.6247695,-74.1104382,1,3.0099763320984607,0,inf,5,1.8674133491468057,1,1.044499284513269,166,0.3312231651891462,23,1.1041013442471732,1,2.1609984835899763,1,1.042398127909332,592,0.1879264406093457,7,1.8674133491468057,0,inf,8,0.7449043627109146,0,inf,21,0.3619067670925383,
347 Maine Ave,"Staten Island, NY 10314","347 Maine Ave Staten Island, NY 10314 ",40.620761,-74.135182,3,2.382892599407923,0,inf,1,3.062547140860936,1,0.476861800452738,107,0.2488502943278052,20,1.0088177563193617,0,inf,1,2.3174119821481622,498,0.2653407519281771,3,2.3355787867742483,0,inf,8,0.3247457389002911,0,inf,13,0.3871540963155583,
320 E 42nd St Apt 1503,"New York, NY 10017","320 E 42nd St Apt 1503 New York, NY 10017 ",40.7494678,-73.9717468,19,0.8978244613264746,3,0.7581689948031218,131,0.2655078777692604,40,0.92242169135359,3469,0.0835478062973558,189,0.0842740980693625,13,0.4406415983609679,21,0.5578206133486202,1596,0.0103852924493772,138,0.2655078777692604,1,0.9895856555064994,43,0.3159032953163946,23,0.3097015124962822,222,0.0833061309069294,
203 W 81st St Apt 4E,"New York, NY 10024","203 W 81st St Apt 4E New York, NY 10024 ",40.7849407,-73.9778666,12,0.5490799139992238,2,1.1704971578284291,79,0.1340405189802432,11,1.1547888612845183,1910,0.0327222480812448,178,0.1498004901509898,10,1.0675607087837755,10,0.8137588377531731,1335,0.0455572699594474,86,0.1340405189802432,0,inf,22,0.2870674061335824,23,0.7644908413028745,151,0.2082107991091785,
118 Admiral Ct Unit 14,"Bronx, NY 10473","118 Admiral Ct Unit 14 Bronx, NY 10473 ",40.806147,-73.85236,24,1.179175240239417,0,inf,23,1.92088530766352,3,2.107092218837335,110,1.3017390664320647,79,0.6141895717589204,0,inf,0,inf,618,0.090601909886307,23,1.92088530766352,1,1.7386413258087186,0,inf,6,1.972618370479689,27,1.5606065108415133,
103 Elmbank St,"Staten Island, NY 10312","103 Elmbank St Staten Island, NY 10312 ",40.530342,-74.163161,1,2.2992300997194066,0,inf,8,0.9774460396003996,0,inf,89,0.0920337896177564,2,2.53663278662756,0,inf,0,inf,194,0.1018464877853458,8,0.9774460396003996,0,inf,1,2.9023576463044334,0,inf,8,1.039534536591694,
707 Marcy Ave,"Staten Island, NY 10309","707 Marcy Ave Staten Island, NY 10309 ",40.5396912,-74.2009617,1,2.868191416527917,0,inf,8,0.6367313012400878,0,inf,117,0.3404807896363433,10,1.0584593398181092,0,inf,0,inf,215,0.3228113728545784,8,0.6367313012400878,0,inf,1,0.8227944008767476,0,inf,10,0.9857523406570928,
8 Tacoma St,"Staten Island, NY 10304","8 Tacoma St Staten Island, NY 10304 ",40.5991374,-74.0913053,1,2.2163115162862006,0,inf,7,1.245555042870847,1,2.783411272316289,146,0.3626840341400631,16,0.9169214707583828,0,inf,1,1.5356025549988328,521,0.0379956416767394,7,1.245555042870847,0,inf,5,2.037455712885865,1,2.295591013954005,20,0.3927201730546088,
34 W 12th St,"New York, NY 10011","34 W 12th St New York, NY 10011 ",40.7350844,-73.9959964,21,0.301036654466734,3,0.6703348083186523,135,0.1467211796031829,39,0.3031283382041652,3175,0.0730178163004498,181,0.18876287746821,15,0.1838889744170305,23,0.0790956459159775,1533,0.074125227583898,151,0.1467211796031829,1,1.2122544139219262,45,0.2297421664638016,28,0.3995582889316151,199,0.1104408265654046,
575 Park Ave Unit 407,"Manhattan, NY 10065","575 Park Ave Unit 407 Manhattan, NY 10065 ",40.7651716,-73.9678719,15,0.9269567235583264,3,0.8157824179418243,114,0.0995860866077534,39,0.2417615864961073,2924,0.079364922824981,178,0.0704260805021669,12,0.2409118775786882,21,0.6805441052059359,1579,0.087950116137841,121,0.0995860866077534,1,2.08807931864858,30,0.0599851462718895,23,0.229244719919867,207,0.171822021655391,
30 Aviva Ct,"Staten Island, NY 10307","30 Aviva Ct Staten Island, NY 10307 ",40.5081966,-74.2548917,6,0.3979623482985184,0,inf,4,0.3509722526672296,0,inf,51,0.4046166704085157,16,0.5863426772493033,0,inf,0,inf,150,0.3923539376923153,6,0.3509722526672296,0,inf,1,3.033536013791132,0,inf,6,0.6296267056257614,
9951 Shore Rd Apt 1B,"Brooklyn, NY 11209","9951 Shore Rd Apt 1B Brooklyn, NY 11209 ",40.6125976,-74.0358108,2,0.4603248612392523,0,inf,28,0.3536000316293585,0,inf,360,0.0843903501078979,32,0.071528708747498,1,3.0426746363470936,1,2.9704943967022857,812,0.017541243733108,28,0.3536000316293585,0,inf,1,2.9613163708075074,1,2.571747879400033,57,0.4240570053593304,
201 W 70th St Apt 5D,"New York, NY 10023","201 W 70th St Apt 5D New York, NY 10023 ",40.777187,-73.9826725,15,0.0812991759898295,3,0.6062057271033315,97,0.1332937753783862,17,0.5948406424946883,2206,0.0282106391405479,176,0.1453661947818526,11,0.4836214928464113,14,0.2320954105911799,1411,0.0209206338051586,106,0.1332937753783862,1,2.945407400983512,29,0.2573994300573148,23,0.2256307618417091,175,0.0805229721697082,
71 Groton St,"Staten Island, NY 10312","71 Groton St Staten Island, NY 10312 ",40.5362498,-74.1497357,1,1.484384540038082,0,inf,8,0.97832203433684,0,inf,95,0.0852438073677982,4,2.4008107341926634,0,inf,0,inf,210,0.0800138024519281,8,0.97832203433684,0,inf,0,inf,1,3.0397494585676963,9,0.8873841852996683,
1923 E 32nd St,"Brooklyn, NY 11234","1923 E 32nd St Brooklyn, NY 11234 ",40.60917,-73.9353047,9,0.5728511563513716,0,inf,35,1.1799934388767046,2,0.8422121657874239,210,0.490669767838427,76,0.1034802119234619,1,1.421251832611377,0,inf,1089,0.1878633376945638,35,1.1799934388767046,1,1.752325389100564,3,2.48559814202803,2,0.735455237692249,53,0.5999816888127072,
11 Wirt Ave,"Staten Island, NY 10309","11 Wirt Ave Staten Island, NY 10309 ",40.5485503,-74.2145048,4,2.1124134068940816,0,inf,7,1.5757285709586375,0,inf,103,0.2428693016098462,14,1.537033215887631,0,inf,0,inf,186,0.2556558916453434,7,1.5757285709586375,0,inf,1,0.5329423387248842,0,inf,10,0.2338056257264496,
253 Father Capodanno Blvd,"Staten Island, NY 10305","253 Father Capodanno Blvd Staten Island, NY 10305 ",40.5909939,-74.0662942,2,2.591950838277243,0,inf,7,2.014987505759413,0,inf,138,0.0762159485078074,10,1.7760106527259454,0,inf,1,2.470432796914344,402,0.0246436270605514,7,2.014987505759413,0,inf,1,2.834432832929497,1,3.048471766810077,15,0.96181350870287,
333 W 56th St Apt 2M,"New York, NY 10019","333 W 56th St Apt 2M New York, NY 10019 ",40.767173,-73.9850762,16,0.3211988201430791,3,0.1452246791709577,106,0.1855724272169684,27,0.169047315912197,2731,0.0606541561263395,164,0.1706555026404338,12,0.1997211072633752,21,0.2236624618122984,1498,0.0388377574791496,115,0.1855724272169684,1,2.299963394420848,34,0.4560661560110521,25,0.2198004809843158,188,0.0673410385400105,
195-21 Station Rd,"Flushing, NY 11358","195-21 Station Rd Flushing, NY 11358 ",40.7614962,-73.7864907,15,1.4727002485166811,2,2.2684232900823877,1,2.2829318884498253,1,2.3539565571927605,282,0.3009721905385131,23,1.0981422271787564,0,inf,0,inf,859,0.0699435513861529,9,0.1696648455857156,0,inf,2,2.3559610016150807,5,0.6899129700269114,48,1.0860741525416886,
64-18 84 Pl,"Middle Village, NY 11379","64-18 84 Pl Middle Village, NY 11379 ",40.721395,-73.868864,11,2.076198791877652,1,3.049549838495538,48,0.7067985652194899,14,1.4867590496309333,862,0.085475270061116,68,0.1820721062608803,1,2.025490964032928,0,inf,1421,0.0587093418147503,52,0.7067985652194899,0,inf,2,2.7814344861258595,2,0.8673107273788024,127,0.0892897719738807,
72 Bangor St,"Staten Island, NY 10314","72 Bangor St Staten Island, NY 10314 ",40.5852392,-74.1541001,5,1.2015897865841507,0,inf,7,2.016028784663465,0,inf,167,0.6251439540696581,14,1.1202248087288618,0,inf,0,inf,375,0.3438569927713059,7,2.016028784663465,0,inf,1,2.3374465677897844,1,1.9709071317598152,22,0.6973033051860138,
6448 Booth St Apt 4D,"Rego Park, NY 11374","6448 Booth St Apt 4D Rego Park, NY 11374 ",40.7274972,-73.8607302,12,1.5928106549307317,2,2.460883342788604,36,0.1821602028898012,9,1.4780156411982608,819,0.1250512039397414,54,0.5239298074704992,1,1.776499177275389,0,inf,1455,0.1551321098617963,41,0.1821602028898012,0,inf,1,2.381081631356978,3,1.4669090886550746,127,0.1499217458207541,
193 Saint Johns Ave,"Staten Island, NY 10305","193 Saint Johns Ave Staten Island, NY 10305 ",40.6095235,-74.0706081,1,2.3012368049464547,0,inf,10,0.8274943961415497,0,inf,197,0.3691789733277046,13,0.6091996934431496,1,2.3589120633793206,1,1.3539495668345771,618,0.1192599519307786,10,0.8274943961415497,0,inf,7,1.6034317332285393,0,inf,21,0.1710450437747447,
144-55 Melbourne Ave Unit 3A,"Flushing, NY 11367","144-55 Melbourne Ave Unit 3A Flushing, NY 11367 ",40.7340599,-73.82532,15,0.3165602229662393,2,1.6140741236615934,26,1.2550033890058736,5,1.97193178221812,611,0.025992999249924,38,0.5798872742260252,1,1.361594269881251,0,inf,1470,0.0135479913309792,35,1.2550033890058736,0,inf,1,0.4701802803092983,3,0.8140243362353659,117,0.0869018228374806,
295 Hicks St,"Brooklyn, NY 11201","295 Hicks St Brooklyn, NY 11201 ",40.692452,-73.9969371,20,1.0273135011304877,0,inf,115,0.2939029491997184,24,1.1736593935204451,2124,0.1043505348166932,166,0.380553560042539,9,0.5701462865720107,13,2.498495484693108,1191,0.1215627161830072,122,0.2939029491997184,0,inf,30,0.3890080509320908,13,0.375024685495713,168,0.2051805737383557,
287 Dickie Ave,"Staten Island, NY 10314","287 Dickie Ave Staten Island, NY 10314 ",40.6169701,-74.1378405,4,2.11486226302284,0,inf,2,2.931535029594963,1,0.7726296769983214,105,0.5083182295605384,20,0.7715874127148985,0,inf,1,2.4757209946412817,475,0.0723737972868817,3,2.6158926598456294,0,inf,8,0.1291931445582176,0,inf,14,0.6377088555833657,
1177 Anderson Ave Apt 2D,"Bronx, NY 10452","1177 Anderson Ave Apt 2D Bronx, NY 10452 ",40.83645,-73.924271,43,0.2340334481399834,1,2.9326293043461784,77,0.1645709175910155,7,0.5299818774052225,394,0.5468117899495122,215,0.4345721287789055,4,1.164655927319587,1,1.8876845359563548,1115,0.1259966920669767,87,0.1645709175910155,0,inf,13,0.4336996567862559,8,0.9142149590907916,84,0.3346211258341068,
173-175 Riverside Dr # 13N,"New York, NY 10024","173-175 Riverside Dr # 13N New York, NY 10024 ",40.7918251,-73.9778209,13,0.48918793015377,1,1.6374375795477618,73,0.2502637657504136,7,1.6228676306133454,1655,0.1690598038052007,174,0.0494911137693664,6,1.494733954412408,9,1.2716069460966624,1256,0.0657988460341814,79,0.2502637657504136,0,inf,17,0.726369119143875,22,0.6067584150351634,130,0.1760995781213954,
58 Montell St,"Staten Island, NY 10302","58 Montell St Staten Island, NY 10302 ",40.6291622,-74.1391469,5,2.642135151867758,0,inf,0,inf,2,0.5057856434216675,106,0.0748295607708628,28,1.0816511934336326,0,inf,1,2.5816021742512936,453,0.0895947194476703,2,1.8127574398133612,0,inf,8,0.8206652997772874,0,inf,12,0.2868870758333701,
2243 Schenectady Ave,"Brooklyn, NY 11234","2243 Schenectady Ave Brooklyn, NY 11234 ",40.6171702,-73.9293459,14,0.0652523689948581,0,inf,32,1.4485780141916076,2,0.2201837257029304,183,0.1312034242612905,86,0.6053824657557675,1,1.8654286660482888,0,inf,1148,0.0611446294790442,32,1.4485780141916076,1,1.6359820566334056,3,2.629918228898875,2,0.2737944685608051,45,0.2528493369449627,
28 Logan St,"Brooklyn, NY 11208","28 Logan St Brooklyn, NY 11208 ",40.6861065,-73.8791723,25,0.1626274041664122,1,1.5584216697638322,64,0.3039817730618156,17,1.3333295264942282,570,0.280398210021558,80,0.2311830817114013,0,inf,0,inf,1569,0.0631505023942036,67,0.3039817730618156,0,inf,1,2.7440803296361964,4,1.1502393595581557,80,0.3461662255868103,
403 W 148th St,"New York, NY 10031","403 W 148th St New York, NY 10031 ",40.8263203,-73.9437414,36,0.0663751789095884,0,inf,72,0.1528623562224539,5,1.6231321277638515,571,0.0171811232321969,220,0.1264892840586644,4,0.4996076156131377,1,0.6927644251812547,1040,0.0418821179084574,78,0.1528623562224539,0,inf,14,0.3154759097789772,9,0.4125992533664459,99,0.2575484861406536,
161 W 86th St Apt 5A,"New York, NY 10024","161 W 86th St Apt 5A New York, NY 10024 ",40.787351,-73.9738346,13,0.306073830116433,2,1.39002471289301,81,0.1557571220412428,10,1.372195149792114,1845,0.0567239209091241,181,0.1169040140392057,9,1.322966486586567,9,1.051447663043183,1330,0.0484216750867622,87,0.1557571220412428,0,inf,20,0.3950402535284286,22,0.6755634821739598,148,0.0842840421850191,
110 Central Park S Apt 11B,"New York, NY 10019","110 Central Park S Apt 11B New York, NY 10019 ",40.765738,-73.9770652,15,0.7382657543284054,3,0.3539239226482066,111,0.1235200591567938,33,0.3424870149799632,2851,0.02818147249619,171,0.2066672855342122,12,0.3634324422640754,21,0.4385127857568165,1561,0.0260204914334875,118,0.1235200591567938,1,2.1217047013781984,34,0.3966458014241069,25,0.3381101011417889,195,0.1156839980673675,
50 Morningside Dr Apt 32,"Manhattan, NY 10025","50 Morningside Dr Apt 32 Manhattan, NY 10025 ",40.8055735,-73.9599471,25,0.418207117700933,1,2.8317925045571126,67,0.2537383255409564,4,0.9903665374900352,1059,0.0842567780420673,213,0.2531374784322636,7,0.3168659341078289,4,0.9719464522963258,1074,0.0943554774960318,70,0.2537383255409564,0,inf,22,0.6756720971199708,20,0.2634835534144656,121,0.270396643692176,
44 Mildred Ave,"Staten Island, NY 10314","44 Mildred Ave Staten Island, NY 10314 ",40.590993,-74.187184,6,0.906515955419534,0,inf,0,inf,0,inf,66,0.2593951701454722,20,1.023414170136522,0,inf,0,inf,205,0.2516567378061467,0,inf,0,inf,0,inf,0,inf,11,1.1264793869057816,
52-35 240th St,"Little Neck, NY 11362","52-35 240th St Little Neck, NY 11362 ",40.7579907,-73.7417857,12,0.6670075470556527,0,inf,0,inf,1,2.218045916162196,199,0.5352623652694588,13,1.4053616134792055,0,inf,0,inf,630,0.189942528493924,9,0.8154945754698222,0,inf,0,inf,3,2.076789983933948,30,0.2530005732695,
35 Jeanette Ave,"Staten Island, NY 10312","35 Jeanette Ave Staten Island, NY 10312 ",40.5433305,-74.1755798,1,2.61767305946272,0,inf,8,0.2284790732421658,0,inf,96,0.1554036147338811,3,2.20229656916842,0,inf,0,inf,224,0.530914071366005,8,0.2284790732421658,0,inf,1,2.1601581593448493,0,inf,9,0.5570753460690272,
360 E 72nd St Apt A307,"New York, NY 10021","360 E 72nd St Apt A307 New York, NY 10021 ",40.7680319,-73.9569977,14,0.8977346186670173,3,1.355431710185797,110,0.0916514184801265,30,0.8318118788541495,2586,0.0728250047771684,182,0.2121736727838071,11,0.3767260337343996,14,0.2513657492202287,1586,0.0324114926596884,116,0.0916514184801265,1,2.417319176385798,28,0.5250138238307197,22,0.372394314355399,205,0.0520305885698395,
109 Quinlan Ave,"Staten Island, NY 10314","109 Quinlan Ave Staten Island, NY 10314 ",40.6096139,-74.1286284,4,2.3278516609360023,0,inf,6,2.2340282557981888,1,1.1694902231955917,171,0.3395820339798415,21,0.3619164455301644,0,inf,1,2.1334442858487943,589,0.1924076028595626,7,2.2340282557981888,0,inf,8,0.5798173383936278,1,2.509173833782883,22,0.2417290645703874,
10108 4th Ave Apt 25A,"Brooklyn, NY 11209","10108 4th Ave Apt 25A Brooklyn, NY 11209 ",40.6121387,-74.0344804,2,0.4003139951825595,0,inf,29,0.3336465649789106,0,inf,355,0.0278634692704803,31,0.1405370673641306,0,inf,1,3.045496697520588,805,0.0436526627100329,29,0.3336465649789106,0,inf,1,3.038035921581246,1,2.5693556553626955,57,0.4118343835501364,
77-20 Austin St Unit 5F,"Forest Hills, NY 11375","77-20 Austin St Unit 5F Forest Hills, NY 11375 ",40.7146499,-73.8355099,19,0.8785202479671683,2,2.9469118967725487,37,0.2368072230591166,5,0.6087151119801149,573,0.1249286915434384,47,0.23496778750322,1,0.2238237926876139,0,inf,1496,0.128171984924776,43,0.2368072230591166,0,inf,1,1.7894430564582833,3,1.82053356907367,114,0.360279384964931,
40 Larkin St,"Staten Island, NY 10302","40 Larkin St Staten Island, NY 10302 ",40.6393485,-74.1356374,2,2.361359472504535,0,inf,0,inf,2,0.9305185341508028,113,0.5205777000928596,29,0.8196238693782456,1,3.077431388701616,1,2.648346445412293,474,0.0768695661925252,3,1.0870359500898492,0,inf,8,0.962441660367007,0,inf,11,0.8958723361200672,
822 Lafayette Ave,"Brooklyn, NY 11221","822 Lafayette Ave Brooklyn, NY 11221 ",40.6908776,-73.9400625,29,0.0991518278995818,0,inf,104,0.4913127882906664,31,0.4809455174384444,1257,0.1138728598398582,190,0.3052492543977889,3,0.7332351596124635,0,inf,1799,0.0190916284287071,107,0.4913127882906664,0,inf,11,1.7374100588236778,5,2.1059324814313074,162,0.2800631593031465,
25 Pelton Ave,"Staten Island, NY 10310","25 Pelton Ave Staten Island, NY 10310 ",40.6432518,-74.1116032,1,1.7338136809529523,0,inf,4,1.9750992196541837,1,1.5117418900779267,118,0.2503094348418923,24,0.4728160881442477,1,1.8018537130818988,1,1.853472668744116,506,0.1284434546149082,8,1.1928574753752892,0,inf,8,0.3622455847548296,0,inf,16,0.993568440167006,
1538 Saint Marks Ave,"Brooklyn, NY 11233","1538 Saint Marks Ave Brooklyn, NY 11233 ",40.67319,-73.9163494,36,0.1675163339302939,0,inf,85,0.4565151767549461,21,1.2030900697330726,629,0.3661805643058289,136,0.3070296014009441,2,1.5944597463680028,0,inf,1814,0.0288188917425609,87,0.4565151767549461,0,inf,3,2.02309300916282,3,1.6938684349836466,105,0.2918183717369451,
18 Calcagno Ct,"Staten Island, NY 10314","18 Calcagno Ct Staten Island, NY 10314 ",40.6089871,-74.1602992,3,0.8605080598012771,0,inf,0,inf,1,1.993304697691438,91,0.130420347470598,13,0.6260406940768412,0,inf,0,inf,326,0.1179530562432341,0,inf,0,inf,2,1.3834814282838244,0,inf,12,0.257877443517628,
1171 Ocean Pkwy Apt 2B,"Brooklyn, NY 11230","1171 Ocean Pkwy Apt 2B Brooklyn, NY 11230 ",40.6201147,-73.9691833,6,1.9233297611641456,0,inf,63,0.3277792657727952,2,2.2697167118371997,477,0.3011194481585503,112,0.2777022411967778,1,0.9827831036812352,0,inf,1509,0.2089132113817808,63,0.3277792657727952,0,inf,3,1.2210848197220208,3,0.8426539255604258,93,0.5164594094820962,
78 E 127th St Apt 18,"Manhattan, NY 10035","78 E 127th St Apt 18 Manhattan, NY 10035 ",40.8063839,-73.9387636,33,0.225801434685378,0,inf,72,0.1572841757289635,7,0.5535760841059171,1009,0.0816232917916248,220,0.0392303985931687,5,0.876481801127531,2,0.9919961356515912,1237,0.0691919691524733,75,0.079502701803069,0,inf,18,0.3346645126222444,11,1.3207524760287943,128,0.1645797073451953,
60 Knolls Cres Apt 6L,"Bronx, NY 10463","60 Knolls Cres Apt 6L Bronx, NY 10463 ",40.8784938,-73.918116,33,0.1428961578057765,1,0.047507408510762,43,0.5059501208966118,2,1.2132946458680385,171,0.3932759438925813,106,0.2683690572221002,0,inf,0,inf,576,0.0597397210050809,52,0.214054058948646,0,inf,3,0.8064260689152131,6,1.2003685186946755,44,0.5332914511604446,
1393 Park Pl,"Brooklyn, NY 11213","1393 Park Pl Brooklyn, NY 11213 ",40.6725943,-73.9313019,35,0.6690951134304131,0,inf,102,0.2604458666844693,22,1.072307981831535,888,0.1224568096420309,179,0.2458145047908228,2,0.8985866206913465,0,inf,1915,0.0367395345367338,105,0.2604458666844693,0,inf,6,1.2809983477222897,4,2.4406544582618044,129,0.2547088545882188,
46 W 126th St # Th,"New York, NY 10027","46 W 126th St # Th New York, NY 10027 ",40.8076792,-73.9436268,31,0.1619016463774228,0,inf,71,0.1005232495746262,3,0.5945265432706213,972,0.0804899340596902,223,0.0434039986730518,5,0.6485941212822456,2,0.7776837556900807,1191,0.0690683301077285,74,0.1005232495746262,0,inf,20,0.1591945794250958,12,1.121602935880902,123,0.119633440427446,
100 W 57th St Apt 8P,"New York, NY 10019","100 W 57th St Apt 8P New York, NY 10019 ",40.7614835,-73.97081,15,0.8827451368863277,3,0.7909523460353433,119,0.1753632452685916,40,0.0965148108238981,3103,0.0577470333708607,174,0.1040587023989242,12,0.5264288852452086,21,0.8640570830560274,1586,0.0260466974546605,126,0.1753632452685916,1,1.820157102638967,34,0.1806895978449662,25,0.0959965252241751,211,0.2440307211423991,
206 E 90th St Apt 2E,"Manhattan, NY 10128","206 E 90th St Apt 2E Manhattan, NY 10128 ",40.7811326,-73.9519892,17,0.6393006269273558,2,1.8408788710330877,100,0.2174154082964515,17,1.3226152270064675,2113,0.0244838194960094,196,0.1727230058150207,10,1.1550657532302786,9,1.1406420283859688,1488,0.0810885987780086,105,0.2174154082964515,0,inf,21,0.425234769244153,20,1.0977420508502005,175,0.1016772315380097,
144-55 Melbourne Ave Unit 4A,"Flushing, NY 11367","144-55 Melbourne Ave Unit 4A Flushing, NY 11367 ",40.7340599,-73.82532,15,0.3165602229662393,2,1.6140741236615934,26,1.2550033890058736,5,1.97193178221812,611,0.025992999249924,38,0.5798872742260252,1,1.361594269881251,0,inf,1470,0.0135479913309792,35,1.2550033890058736,0,inf,1,0.4701802803092983,3,0.8140243362353659,117,0.0869018228374806,
3850 Hudson Manor Ter Apt 5AE,"Bronx, NY 10463","3850 Hudson Manor Ter Apt 5AE Bronx, NY 10463 ",40.88954,-73.9152547,32,0.6098617414220588,1,0.7611478205657398,34,0.8252114249019742,1,1.9875350138930588,142,0.4323655351918802,92,0.3385371211529211,0,inf,0,inf,456,0.2353045501645922,45,0.8206745947669548,0,inf,3,1.580358931925554,6,0.7771639604040995,43,0.4248767883194182,
183 Bay Ter,"Staten Island, NY 10306","183 Bay Ter Staten Island, NY 10306 ",40.5534499,-74.1341579,2,0.5534094165679301,0,inf,8,0.2511592041773141,0,inf,122,0.4500536777475447,6,1.3121801538296327,0,inf,0,inf,274,0.0931154746278801,8,0.2511592041773141,0,inf,0,inf,1,1.6018747031112683,12,0.7746506251982036,
8829 155th Ave Apt 5A,"Howard Beach, NY 11414","8829 155th Ave Apt 5A Howard Beach, NY 11414 ",40.6656299,-73.84713,16,0.8851851940048894,1,0.6395528248863391,37,0.7097308940629455,6,1.941863735376508,165,0.2520205783957588,30,0.7493191878488166,0,inf,0,inf,918,0.1914193512758877,42,0.7097308940629455,0,inf,0,inf,4,2.036889201222788,29,0.2184846245320994,
58 St Nicholas Ave Unit 6,"Brooklyn, NY 11237","58 St Nicholas Ave Unit 6 Brooklyn, NY 11237 ",40.7066922,-73.920648,24,0.8223034848346542,0,inf,79,0.1271696967621495,31,0.0679012135598285,1070,0.0434747098457362,128,0.2671358328681899,2,1.2003318718193277,0,inf,1686,0.1554277940848438,84,0.1271696967621495,0,inf,4,0.2928226261597821,3,2.129925375310584,135,0.1058722888119179,
148 E 84th St Apt 3C,"New York, NY 10028","148 E 84th St Apt 3C New York, NY 10028 ",40.7780033,-73.9564912,18,0.9581486371971176,2,1.5322719032040886,99,0.1145600490859662,20,1.3037054008079885,2226,0.0125089872474427,189,0.0721426723124306,10,0.8485767013522987,10,0.9181029774097615,1498,0.0639770694144966,105,0.1145600490859662,1,3.0795784893433207,22,0.2128764845550716,21,0.7836947331983075,185,0.1095601471433028,
205 W 95th St Apt 5E,"New York, NY 10025","205 W 95th St Apt 5E New York, NY 10025 ",40.7935703,-73.9709329,18,0.2854111778409373,1,1.8453533797279296,76,0.0790284855650914,8,1.5076945160481072,1599,0.0101280213996725,191,0.0751671241624935,7,1.2798719847378202,5,1.5036752430286398,1253,0.047436078255553,81,0.0790284855650914,0,inf,18,0.8308107390953576,24,0.2388363125260201,130,0.0305487031100924,
5700 Arlington Ave Unit 2NM,"Bronx, NY 10471","5700 Arlington Ave Unit 2NM Bronx, NY 10471 ",40.9070166,-73.9062326,27,0.3254234130622553,1,2.04283177926996,22,1.2773014175923667,0,inf,66,0.0999035766142385,70,0.1710110464104992,0,inf,0,inf,289,0.1049357849591894,33,0.4233285067575417,0,inf,2,2.8706258684428185,3,0.6106180058771057,25,0.0754890564560181,
724 E 216th St Apt 5C,"Bronx, NY 10467","724 E 216th St Apt 5C Bronx, NY 10467 ",40.881077,-73.8632749,38,0.1006751309008398,1,2.830555217761098,39,0.1917755425318145,1,2.327081618296418,139,0.1970744426947458,108,0.1014796592323306,1,2.4479634212277865,0,inf,765,0.093916397847234,51,0.1917755425318145,0,inf,1,3.086123228230511,6,2.030810904689803,50,0.0921647852962114,
218 Scholes St Unit 12,"Brooklyn, NY 11206","218 Scholes St Unit 12 Brooklyn, NY 11206 ",40.70884,-73.940246,23,0.3037377521014689,0,inf,103,0.0841346153305834,36,0.1870849245959986,1881,0.0427644129085891,167,0.212117146169927,5,0.5288565054416492,1,2.859155862588149,1777,0.0877774156050914,108,0.0841346153305834,1,2.497116297097936,14,0.8520191017054072,8,2.186824039805131,203,0.0952733140915437,
432 Park Ave # 71,"New York, NY 10022","432 Park Ave # 71 New York, NY 10022 ",40.761648,-73.9717602,15,0.9316490959105854,3,0.7446521758252804,120,0.2162819504975718,40,0.0851335516512561,3094,0.039062666910648,174,0.1312220537079199,12,0.5532292408687107,21,0.8347142428986641,1591,0.0295594886105177,127,0.2162819504975718,1,1.8291778008584891,34,0.1905176574345046,25,0.1413390321849581,210,0.2549687024229925,
25 Benjamin Pl,"Staten Island, NY 10303","25 Benjamin Pl Staten Island, NY 10303 ",40.6375986,-74.1691945,9,1.537675698418079,0,inf,0,inf,2,1.4438546505796477,86,0.610657981521707,31,0.67479450270976,0,inf,0,inf,297,0.1178024207803234,1,2.402642231278668,0,inf,3,2.304356505300564,0,inf,12,0.6280061218190418,
15 W 84th St Apt 1J,"New York, NY 10024","15 W 84th St Apt 1J New York, NY 10024 ",40.7845842,-73.9713866,13,0.3781361153743217,2,1.2676929854032404,93,0.1212679843297222,11,1.2476992325085643,2044,0.088600738976206,186,0.1243555179041442,10,1.2603558103604315,10,0.9629731937289376,1396,0.0702269390490408,99,0.1212679843297222,0,inf,23,0.2227755853190862,22,0.8064910189225202,164,0.2909552701158344,
36-15 10th St,"Astoria, NY 11106","36-15 10th St Astoria, NY 11106 ",40.7609039,-73.9409189,11,0.9021269399130752,2,2.258893091414204,99,0.4732027871329932,27,1.0573041730712855,2489,0.0484017029495792,158,0.4741978918530022,9,1.1258257976891095,10,0.7807184420074995,1615,0.1034933851290235,105,0.4732027871329932,1,2.4441789372107103,23,0.9449853050514836,20,0.2399681194679674,202,0.3129124529527082,
2250 Brigham St Apt 2E,"Brooklyn, NY 11229","2250 Brigham St Apt 2E Brooklyn, NY 11229 ",40.5977996,-73.9348026,8,1.301795156901083,0,inf,30,1.085184562558691,1,1.5419410464747798,175,0.1645452401255558,56,0.3119942481374438,1,1.570600122650685,0,inf,922,0.1754411786573065,30,1.085184562558691,1,1.7846903664759877,1,2.1007192671412005,2,1.5146534855347615,35,0.4654004029390613,
38 E 85th St Unit 3E,"New York, NY 10028","38 E 85th St Unit 3E New York, NY 10028 ",40.7799999,-73.9592632,18,0.8407230994244476,2,1.4726352644464962,99,0.1989311871119312,20,1.3424852183543028,2189,0.0307596642088301,193,0.0931006154882184,10,0.9224163130584382,10,1.0766039520502717,1471,0.0700051580999629,105,0.1989311871119312,0,inf,23,0.0380199511468164,22,0.8387233244100226,184,0.128922929845154,
2287 Johnson Ave Apt 17J,"Bronx, NY 10463","2287 Johnson Ave Apt 17J Bronx, NY 10463 ",40.8778582,-73.9188858,32,0.1982956502545835,1,0.1014447806620592,42,0.5172937689238136,2,1.1665664340990027,171,0.3499401218020718,106,0.3054106290177458,0,inf,0,inf,579,0.0544433423800523,51,0.1857520072836316,0,inf,3,0.7526399673406452,6,1.2593959349063,44,0.5581374986353953,
389 Manhattan Ave,"Manhattan, NY 10026","389 Manhattan Ave Manhattan, NY 10026 ",40.8053553,-73.9568515,26,0.3647481930296223,1,2.8910371290123886,68,0.1003874578333266,4,0.8409869532798812,1059,0.0921739134610866,216,0.1607289159146066,6,0.3713876270551962,4,0.9138407169463116,1104,0.0177033421373403,71,0.1003874578333266,0,inf,22,0.5283367868163987,20,0.4263561946961459,122,0.1401991271628219,
22 E 10th St,"Manhattan, NY 10003","22 E 10th St Manhattan, NY 10003 ",40.7326998,-73.9943864,19,0.4226777406595799,3,0.84895808687588,137,0.1878700102903694,40,0.3654700983844647,3181,0.0495026440317426,191,0.09234912135313,15,0.0394038936681449,23,0.1358735986532089,1498,0.0264741962688109,152,0.1878700102903694,1,1.140397245470891,45,0.3514303107344341,28,0.2193036612881358,200,0.044158922904014,
97-40 62nd Dr Unit 2G,"Rego Park, NY 11374","97-40 62nd Dr Unit 2G Rego Park, NY 11374 ",40.7327399,-73.86077,14,1.6209615736336145,2,2.168319593088768,35,0.1917210178172256,8,1.7826000676580158,819,0.1102849311371249,45,0.7784412749329485,1,1.981025322008793,0,inf,1389,0.0596438795773403,40,0.1917210178172256,0,inf,1,2.3165537057857013,4,1.735961131075091,127,0.1009719529303532,
225 E 46th St Apt 9B,"New York, NY 10017","225 E 46th St Apt 9B New York, NY 10017 ",40.7530081,-73.9712609,19,0.7983549824199182,3,0.8666386383856194,125,0.2743167114494587,40,0.6778384553563761,3437,0.0197550141957891,183,0.2056169077972937,13,0.6073462001409589,21,0.735864314376964,1602,0.0556807633485148,131,0.2743167114494587,1,1.2350231853843827,42,0.3703953573694516,25,0.122114011678786,228,0.0799959322949612,
3321 Bruckner Blvd Apt 2M,"Bronx, NY 10461","3321 Bruckner Blvd Apt 2M Bronx, NY 10461 ",40.842077,-73.8263075,21,0.406213198261814,0,inf,20,0.4636803953093785,2,2.186098867588594,96,0.2583476977844302,67,0.2283532991364222,0,inf,0,inf,573,0.0404109533403769,20,0.4636803953093785,1,0.5917470199359041,1,2.3181222474090357,5,0.9223762639183029,24,0.4745737331247038,
660 Lester St,"Bronx, NY 10467","660 Lester St Bronx, NY 10467 ",40.8704216,-73.8687535,42,0.1528965646329021,1,2.6008391337192647,54,0.1082884791967273,4,1.5832751584529818,193,0.3663888437633506,131,0.2796555996270729,0,inf,0,inf,924,0.3421211513520629,65,0.1082884791967273,0,inf,1,2.84334303187582,7,1.6670761317522622,63,0.5653150650900368,
2507 121st St,"Flushing, NY 11354","2507 121st St Flushing, NY 11354 ",40.7766039,-73.8469159,5,1.1792691438240657,2,1.4659528845711056,9,1.4716533064014443,3,1.2829129396696737,374,0.3123798965451499,29,0.6296120646572634,0,inf,0,inf,829,0.0558860190658165,13,1.4716533064014443,1,1.1283821150889295,0,inf,3,1.1749270091531738,76,0.3451004393183161,
194 56 115 Dr,"Saint Albans, NY 11412","194 56 115 Dr Saint Albans, NY 11412 ",40.6955018,-73.756891,17,0.6485133946240663,0,inf,6,1.843556693427442,5,1.0486875222110268,203,0.1440895371303355,28,0.4863784722425748,0,inf,0,inf,1181,0.1536267311829476,17,0.5414547569266179,0,inf,0,inf,2,0.9081955140947884,60,0.4295891462360786,
60 W 20th St Apt 4D,"New York, NY 10011","60 W 20th St Apt 4D New York, NY 10011 ",40.7406565,-73.9939044,21,0.2905354430206482,3,0.5849131582421434,133,0.1616662803284453,38,0.0823873403254789,3250,0.0267627932012696,166,0.1229365258131946,14,0.1803283766761693,23,0.2264790515049261,1603,0.0452519425737098,147,0.1616662803284453,1,1.165961683063448,49,0.1848633102490296,28,0.0324829872850626,199,0.0843600307903745,
2579 Frederick Douglass Blvd Apt A,"New York, NY 10030","2579 Frederick Douglass Blvd Apt A New York, NY 10030 ",40.8183649,-73.9454799,31,0.3521343286568413,0,inf,69,0.1537883961454984,3,1.337048951463956,760,0.1062509389194685,222,0.1105688789992002,4,0.3124312279454559,1,0.2657861347079183,1078,0.0106843956417189,74,0.1537883961454984,0,inf,17,0.5940289272525822,9,0.6963721480460529,101,0.2767175012467105,
10 Park Ave Unit 3AB,"New York, NY 10016","10 Park Ave Unit 3AB New York, NY 10016 ",40.747507,-73.9814879,21,0.7309492865865747,3,0.2312361054704639,131,0.0788150213582469,38,0.422652062979344,3372,0.0086788754058071,180,0.2285756945527223,13,0.1285096630199562,23,0.1086099740743872,1583,0.0174216615806767,139,0.0788150213582469,1,0.964236581657304,47,0.1215540564921675,26,0.0842805286099381,214,0.2066256938677294,
70 Little West St Apt 32A,"New York, NY 10004","70 Little West St Apt 32A New York, NY 10004 ",40.7069759,-74.0169617,17,0.3366930767214143,1,2.501779556503224,100,0.1655627076961336,28,1.605678613021308,2258,0.0687508720601478,147,0.115526187401977,8,0.2415754896649807,14,1.5984157933971102,1054,0.0294033053607429,113,0.1655627076961336,1,3.0217624690370117,37,0.0928547542039169,16,0.2393470237097403,146,0.017901994204944,
177 E 79th St Unit 16A,"New York, NY 10075","177 E 79th St Unit 16A New York, NY 10075 ",40.7752374,-73.9591773,16,1.122818304052385,2,1.3273866256886582,101,0.1147942479011803,22,1.0664751452583925,2365,0.0245402153605967,184,0.0753896464922915,11,0.6149055237445608,11,0.7573125133294349,1524,0.0036487272356001,107,0.1147942479011803,1,2.858107398173439,25,0.280199253847832,22,0.5466682727111358,194,0.1502709678516627,
41 Crosby St Unit Loftr,"New York, NY 10013","41 Crosby St Unit Loftr New York, NY 10013 ",40.7216787,-73.9986306,20,0.5639734154766868,2,1.4437326164037698,135,0.0872254824917227,38,0.2074740196416493,3100,0.0175139416813566,184,0.2169737823066448,13,0.5044104033329502,20,0.5051530736605105,1343,0.077679252986468,152,0.0872254824917227,1,1.6397390180364495,44,0.1556150875664024,18,0.2339912607391296,190,0.1057885515029507,
62 Bennett Pl,"Staten Island, NY 10312","62 Bennett Pl Staten Island, NY 10312 ",40.5285511,-74.1646281,1,2.4314126492428425,0,inf,7,1.0826449373336646,0,inf,85,0.1209827979678791,2,2.449394579715694,0,inf,0,inf,188,0.0418565901238354,7,1.0826449373336646,0,inf,1,2.862295585983903,0,inf,8,1.1574399006898757,
6960 Caldwell Ave,"Maspeth, NY 11378","6960 Caldwell Ave Maspeth, NY 11378 ",40.723922,-73.892127,6,2.637167038971141,0,inf,59,0.866287841289048,29,1.0077318439312275,1156,0.2044991142575258,75,0.3508296777737044,1,3.064881633983826,0,inf,1491,0.1217557334571446,61,0.866287841289048,0,inf,3,1.7176715144350387,3,0.97017446649209,145,0.2071864002438143,
82-03 260 St,"Glen Oaks, NY 11004","82-03 260 St Glen Oaks, NY 11004 ",40.7410536,-73.7094676,11,0.1743941144242112,0,inf,0,inf,2,0.2647009008030975,153,0.2491911236411272,15,0.9450464722371508,0,inf,0,inf,541,0.2562621460920914,11,1.144789530547598,0,inf,0,inf,2,0.8312856515906814,24,0.288387955957583,
111 W 57th St # 25,"New York, NY 10019","111 W 57th St # 25 New York, NY 10019 ",40.764953,-73.977568,15,0.7173988458683425,3,0.3644961254142439,113,0.0679743244166148,34,0.3567138840000491,2872,0.0331072011729172,168,0.1488426033768979,12,0.3278720403173662,21,0.4598143967405662,1553,0.0253608496834589,120,0.0679743244166148,1,2.070787896011583,34,0.4097757832557796,25,0.2847995753215998,195,0.0711604157406581,
575 Carlton Blvd,"Staten Island, NY 10312","575 Carlton Blvd Staten Island, NY 10312 ",40.5498708,-74.1814847,2,2.909431122256909,0,inf,8,0.6712440824709824,0,inf,107,0.6153824344637571,11,2.245262648804929,0,inf,0,inf,247,0.715252048742737,8,0.6712440824709824,0,inf,1,1.9425855880857383,0,inf,10,0.683041109992635,
463 60th St,"Brooklyn, NY 11220","463 60th St Brooklyn, NY 11220 ",40.6400348,-74.0166592,2,1.16778513936079,0,inf,48,0.1118521140395738,1,2.7191494663927678,525,0.0623339906477833,60,0.1721748538618761,0,inf,0,inf,891,0.025307654599816,48,0.1118521140395738,0,inf,2,1.9196297661817496,3,0.4294442272321224,81,0.1298962122635172,
90 Bay St Unit 9C,"Staten Island, NY 10301","90 Bay St Unit 9C Staten Island, NY 10301 ",40.6404991,-74.0738317,2,2.773230110016617,0,inf,9,0.2366069439070953,1,3.114749603723949,178,0.1061601100692977,20,0.7462402334840613,1,0.2677174227968537,1,1.6011403413193197,572,0.1076786100774179,13,0.2366069439070953,0,inf,7,1.1136003784054251,0,inf,15,0.2020357301608915,
100 United Nations Plz Apt 7G,"New York, NY 10017","100 United Nations Plz Apt 7G New York, NY 10017 ",40.7531064,-73.9676485,17,0.6111146571915957,3,1.0407497571474276,125,0.3569340226427323,44,0.6978864011178353,3393,0.0253934667773864,182,0.1633916929286913,12,0.7554272920780581,21,0.8603939874609482,1591,0.0442616181439182,131,0.3569340226427323,1,1.2690993276806386,42,0.5486836418662404,25,0.302864152824417,231,0.0869843802166719,
3841 Bronxwood Ave,"Bronx, NY 10469","3841 Bronxwood Ave Bronx, NY 10469 ",40.8831624,-73.85661,33,0.3171289404323795,0,inf,35,0.3220733022531752,1,2.5250766088906103,130,0.3217448495560328,106,0.2510331672550139,1,2.146436960097124,0,inf,689,0.0372928511024216,44,0.3220733022531752,0,inf,1,2.7827209093559278,6,2.315019978539259,45,0.3341440682914666,
558 Empire Blvd # 1,"Brooklyn, NY 11225","558 Empire Blvd # 1 Brooklyn, NY 11225 ",40.6638409,-73.943792,31,1.0140876049075012,0,inf,103,0.3753901924884175,16,0.8981084109994322,805,0.4021312678352099,184,0.3219571460437632,3,1.1205656685239431,0,inf,1849,0.0143592733448083,106,0.3753901924884175,0,inf,7,0.479602472549512,5,2.253364018724281,127,0.4735579371939921,
310 E 46th St Apt 3W,"New York, NY 10017","310 E 46th St Apt 3W New York, NY 10017 ",40.7521548,-73.9701522,19,0.7544711657573575,3,0.8941582871370839,127,0.3145132384035635,43,0.7391783042663099,3434,0.0416576046771447,182,0.1930608624357518,13,0.6110076352343418,21,0.7570611417064453,1612,0.0296474809698083,133,0.3145132384035635,1,1.1819757765605072,42,0.4038863434725126,25,0.2021187634195233,229,0.071100256794545,
203 W 98th St Unit 4CD,"New York, NY 10025","203 W 98th St Unit 4CD New York, NY 10025 ",40.7957561,-73.9698024,18,0.4184073675545332,1,2.007348890598556,75,0.1493385501098139,8,1.4183848167412525,1511,0.0410422451469559,193,0.0988287716924281,7,1.1185372989524756,5,1.665436690041758,1218,0.0376695168144679,80,0.1493385501098139,0,inf,18,0.9891787124895384,23,0.1173821175292312,130,0.0728175707220211,
211 E 35th St Apt 6F,"Manhattan, NY 10016","211 E 35th St Apt 6F Manhattan, NY 10016 ",40.7463223,-73.9770888,20,0.8231142635610627,3,0.4643030054744794,136,0.2488272243106305,41,0.6153993879131784,3435,0.0231817589234077,189,0.3174446302366894,13,0.1184278225862754,21,0.3528020043438194,1573,0.0668146076920276,143,0.2488272243106305,1,0.8014156329866579,47,0.2970007003227528,26,0.3284185658175504,220,0.0390905113102446,
24 Cooper Ave Unit 4C,"New York, NY 11385","24 Cooper Ave Unit 4C New York, NY 11385 ",40.6956731,-73.8948072,30,0.9954213965008848,1,2.611734401160207,73,0.4849281219672651,19,0.3989332843004535,650,0.3173617290196008,100,0.5061991208781482,2,2.5301179128322717,0,inf,1681,0.1196066118924635,76,0.4849281219672651,0,inf,1,1.690478889858518,4,1.1061735922427016,84,0.3766100097018625,
530 Manhattan Ave Apt 5,"Manhattan, NY 10027","530 Manhattan Ave Apt 5 Manhattan, NY 10027 ",40.8089559,-73.9541486,26,0.1238077391879534,0,inf,65,0.1521250407726262,3,0.8945539346722403,948,0.0393532573098677,225,0.1143340745774277,5,0.3194576903195334,4,0.6320758434066859,1099,0.0217597604379666,68,0.1521250407726262,0,inf,20,0.3445105942225506,19,0.5976613700977657,114,0.0802060493074625,
16 Pine St,"Brooklyn, NY 11208","16 Pine St Brooklyn, NY 11208 ",40.6862671,-73.874092,24,0.4211224689878604,1,1.375017395835373,66,0.2057167754580107,15,1.57525703675881,588,0.3384547035670024,81,0.2657819189615094,1,2.991781314379344,0,inf,1566,0.0558104515691373,71,0.2057167754580107,0,inf,1,2.9509186460537844,4,1.128973521197685,85,0.4829969225089434,
330 E 38th St Apt 27A,"New York, NY 10016","330 E 38th St Apt 27A New York, NY 10016 ",40.7463283,-73.972718,18,1.009381531548533,3,0.6924771234114309,134,0.3954998957123061,42,0.841828639417268,3461,0.0820633489173566,193,0.2746994779230373,13,0.3461097905449575,21,0.3356321927581057,1597,0.1068672025617512,141,0.3954998957123061,1,0.7711566302755501,45,0.3902662226964524,26,0.5157530079163044,223,0.1554057837012651,
13450 Blossom Ave Apt 3H,"Flushing, NY 11355","13450 Blossom Ave Apt 3H Flushing, NY 11355 ",40.7531437,-73.8276038,13,0.3739339429024523,2,0.2978885593334379,16,0.4639175272579031,2,0.6594782851680722,575,0.0298253650913431,30,0.3285085400319181,1,2.6492405655284466,0,inf,1216,0.045714460317496,24,0.3893370419849257,1,2.917614773254665,1,1.286376997361995,4,1.0984382908605814,94,0.0327671040231474,
166 E 63rd St Apt 7E,"Manhattan, NY 10065","166 E 63rd St Apt 7E Manhattan, NY 10065 ",40.7640562,-73.9653276,15,0.782905866456365,3,0.9659544477736548,115,0.0570976764743038,40,0.324609127009394,2956,0.0585574917946071,176,0.1270246949101266,12,0.2228546251563207,21,0.5485550484485433,1592,0.0865225787912189,121,0.0570976764743038,1,2.033580730306506,30,0.0946394012639239,23,0.2442928799002779,212,0.0374931945535897,
160 Bleecker St Apt 5AW,"New York, NY 10012","160 Bleecker St Apt 5AW New York, NY 10012 ",40.72842,-74.0000025,20,0.4775245560363299,3,0.9750506363822338,131,0.2284049190069041,40,0.0296555630888528,3161,0.0186006541114314,174,0.0531003131543398,14,0.3021296932143258,21,0.1588494842434052,1418,0.1015673200149741,146,0.2284049190069041,1,1.4965390584351403,44,0.0621629367658674,21,0.3737638753280859,191,0.0824024672258477,
123 Washington St Ph 53G,"New York, NY 10006","123 Washington St Ph 53G New York, NY 10006 ",40.7092191,-74.0137534,18,0.2343117070232002,2,2.3127104819978475,106,0.1281822803185753,30,1.377652997259954,2437,0.0050334765649754,157,0.2557055131646734,9,0.1911433746380111,18,1.57505209328541,1103,0.0587279512490259,120,0.1281822803185753,1,2.7932234418139643,40,0.2032782429350031,16,0.3336939273298234,158,0.1122457829984512,
4518 79th St,"Elmhurst, NY 11373","4518 79th St Elmhurst, NY 11373 ",40.7407263,-73.885774,3,2.453594099707801,1,2.896780312897178,41,0.2543487349880095,19,0.4784732077599871,1079,0.1802419699939459,53,0.4043213364348238,0,inf,0,inf,1326,0.1776221236313658,44,0.2543487349880095,0,inf,2,2.2726165668172804,4,1.946272770466116,137,0.2009886130442666,
1185 Fulton Ave Apt G,"Bronx, NY 10456","1185 Fulton Ave Apt G Bronx, NY 10456 ",40.8299282,-73.9053688,48,0.0435548381190426,0,inf,77,0.6994407516121689,7,0.9549236687950908,367,0.4638484479386577,228,0.0604703155687928,3,1.1378531817895448,1,2.510625026851504,1166,0.0693099439692068,85,0.5950740860342505,0,inf,11,0.7682926213584711,7,1.6144292869332144,85,0.6360204289574641,
62-48 70th St,"Middle Village, NY 11379","62-48 70th St Middle Village, NY 11379 ",40.7176641,-73.8859526,8,2.258726388219542,0,inf,67,0.4643375111642068,21,1.0521290216355377,990,0.293261852615595,78,0.2323921438278549,1,2.8783213486389814,0,inf,1494,0.1667777373931538,71,0.4643375111642068,0,inf,1,1.8482644755179505,3,0.4303044482174114,132,0.6126349134044986,
230 Central Park S # 3AB,"New York, NY 10019","230 Central Park S # 3AB New York, NY 10019 ",40.7673066,-73.9806613,16,0.5267050649242854,3,0.1365993592446482,110,0.089001719163365,28,0.1271634626475519,2761,0.0271457748692455,169,0.244774050727668,12,0.2562061484335054,21,0.2321056726753786,1522,0.0178104927328572,118,0.089001719163365,1,2.255723257221351,32,0.411634146557254,25,0.1876283779479592,191,0.1296448661664991,
524 E 72nd St Apt 32CDE,"New York, NY 10021","524 E 72nd St Apt 32CDE New York, NY 10021 ",40.7660223,-73.9524527,14,0.7844342646109763,2,1.6020952350372029,109,0.3672127208559863,27,1.0131051298463818,2570,0.1093785382343862,181,0.2545673152299865,10,0.6150529768812744,14,0.1559758433746651,1588,0.089788253029342,115,0.3672127208559863,1,2.3850452989612205,28,0.7586939925339793,22,0.3476950336136374,207,0.2345361481544285,
